t,x,y,z,pitch,yaw,roll,vx,vy,vz,throttle,steer,brake,reverse,gear
0.0,382.4393615722656,-13.82979679107666,0.29999998211860657,0.0,179.79132080078125,0.0,0.0,0.0,0.0,0.0,0.0,0.0,False,0
0.1,382.4393615722656,-13.82979679107666,0.2428586781024933,0.0,179.79132080078125,0.0,0.0,0.0,-0.9794285297393799,0.0,0.0,0.0,False,0
0.2,382.4393615722656,-13.82979679107666,0.09282735735177994,0.0,179.79132080078125,0.0,-3.6797180857917056e-09,-1.0103285603690892e-06,-1.6581377983093262,0.699999988079071,0.0,0.0,False,0
0.30000000000000004,382.4393615722656,-13.82979679107666,0.008942660875618458,0.0,179.79132080078125,0.0,-1.0874084965806219e-09,-1.406646248369725e-07,-0.4019882380962372,0.699999988079071,0.0,0.0,False,0
0.4,382.4393615722656,-13.82979679107666,-5.1364899263717234e-05,0.0,179.79132080078125,0.0,-6.981186739807299e-10,-1.5706976341789414e-07,0.05660576373338699,0.699999988079071,0.0,0.0,False,0
0.5,382.4393615722656,-13.82979679107666,0.012554416432976723,0.0,179.79132080078125,0.0,1.629298584937544e-09,2.1589633547591802e-07,0.14580054581165314,0.699999988079071,0.0,0.0,False,0
0.6000000000000001,382.4393615722656,-13.82979679107666,0.02552785724401474,0.0,179.79132080078125,0.0,-1.0184693977066672e-08,-1.4482259302894818e-07,0.11116348952054977,0.699999988079071,0.0,0.0,False,0
0.7000000000000001,382.4393615722656,-13.82979679107666,0.033586788922548294,0.0,179.79132080078125,0.0,3.381788848955125e-09,2.805175256526127e-07,0.059905897825956345,0.699999988079071,0.0,0.0,False,0
0.8,382.4393615722656,-13.82979679107666,0.03734784945845604,0.0,179.79132080078125,0.0,-8.095113912531815e-09,3.1907336506264983e-07,0.02439142018556595,0.699999988079071,0.0,0.0,False,0
0.9,382.4393615722656,-13.82979679107666,0.03861776366829872,0.0,179.79132080078125,0.0,4.949243792573554e-10,1.8560855963301037e-08,0.0063865697011351585,0.699999988079071,0.0,0.0,False,0
1.0,382.4393615722656,-13.82979679107666,0.03879491612315178,0.0,179.79132080078125,0.0,3.4331038012425097e-10,-2.332367721180617e-08,-0.0004355848941486329,0.699999988079071,0.0,0.0,False,0
1.1,382.4393615722656,-13.82979679107666,0.0386391244828701,0.0,179.79132080078125,0.0,-2.9898231113101303e-10,-4.4428695389342465e-08,-0.001919521833769977,0.699999988079071,0.0,0.0,False,0
1.2000000000000002,382.4393615722656,-13.82979679107666,0.0384628102183342,0.0,179.79132080078125,0.0,1.5926372720631576e-10,2.462720694040854e-09,-0.0015369905158877373,0.699999988079071,0.0,0.0,False,0
1.3,382.4393615722656,-13.82979679107666,0.03834955021739006,0.0,179.79132080078125,0.0,2.799147136300917e-09,7.291630632622059e-10,-0.0008525953162461519,0.699999988079071,0.0,0.0,False,0
1.4000000000000001,382.4393615722656,-13.82979679107666,0.03829526901245117,0.0,179.79132080078125,0.0,1.734284160725963e-09,1.2391669634848057e-10,-0.0003573012654669583,0.699999988079071,0.0,0.0,False,0
1.5,382.4393615722656,-13.82979679107666,0.03827611729502678,0.0,179.79132080078125,0.0,-9.671371259400985e-09,1.2006585059509689e-08,-9.981399489333853e-05,0.699999988079071,0.0,0.0,False,0
1.6,382.4393615722656,-13.82979679107666,0.03827295079827309,0.0,179.79132080078125,0.0,4.725091151680516e-11,6.625578974350788e-10,1.3158512501831865e-06,0.699999988079071,0.0,0.0,False,0
1.7000000000000002,382.4393615722656,-13.82979679107666,0.0382748581469059,0.0,179.79132080078125,0.0,2.3616242295076972e-09,-3.336106113582815e-10,2.4753258912824094e-05,0.699999988079071,0.0,0.0,False,0
1.8,382.4393615722656,-13.82979679107666,0.03827722370624542,0.0,179.79132080078125,0.0,-7.982486671664901e-09,1.2027593143670856e-08,2.0557790776365437e-05,0.699999988079071,0.0,0.0,False,0
1.9000000000000001,382.4393615722656,-13.82979679107666,0.03827882558107376,0.0,179.79132080078125,0.0,1.03267938644791e-09,-1.6088740062425444e-10,1.291059743380174e-05,0.699999988079071,0.0,0.0,False,0
2.0,382.4393615722656,-13.82979679107666,0.03827882558107376,0.0,179.79132080078125,0.0,-9.866346850628815e-09,1.2133150484316957e-08,4.557803549687378e-06,0.699999988079071,0.0,0.0,False,0
2.1,382.4393615722656,-13.82979679107666,0.03827882558107376,0.0,179.79132080078125,0.0,1.7901419235855087e-09,4.1962291419395115e-08,2.44099942392495e-06,0.699999988079071,0.0,0.0,False,0
2.2,382.4393615722656,-13.82979679107666,0.03827882558107376,0.0,179.79132080078125,0.0,-8.331562106889123e-09,1.194841203755459e-08,6.865310524517554e-07,0.699999988079071,0.0,0.0,False,0
2.3000000000000003,382.4393615722656,-13.82979679107666,0.03827882558107376,0.0,179.79132080078125,0.0,1.2720148268030584e-09,-1.669858362696175e-09,2.288436888875367e-07,0.699999988079071,0.0,0.0,False,0
2.4000000000000004,382.4393615722656,-13.82979679107666,0.03827882558107376,0.0,179.79132080078125,0.0,1.0699915398149074e-09,9.667171924077067e-11,-1.907030799941367e-08,0.699999988079071,0.0,0.0,False,0
2.5,382.4393615722656,-13.82979679107666,0.03827882558107376,0.0,179.79132080078125,0.0,8.175299881507669e-10,-2.6147796816644586e-08,-2.8605461466213455e-07,0.699999988079071,0.0,0.0,False,0
2.6,382.409912109375,-13.829694747924805,0.0380045510828495,0.03268928453326225,179.7906494140625,5.269881876301952e-05,-0.6933009028434753,0.0025517484173178673,9.7258566711389e-07,0.699999988079071,0.0,0.0,False,0
2.7,382.2854309082031,-13.829245567321777,0.03751237690448761,0.09134694188833237,179.78941345214844,0.0002740674535743892,-1.6137019395828247,0.0059443688951432705,-3.184741217410192e-06,0.699999988079071,0.0,0.0,False,1
2.8000000000000003,382.0773010253906,-13.828487396240234,0.03727926313877106,0.11910483241081238,179.78797912597656,0.00047279548016376793,-2.3927392959594727,0.008866488933563232,-4.0619756873638835e-06,0.699999988079071,-3.4571885407785885e-06,0.0,False,1
2.9000000000000004,381.79925537109375,-13.827465057373047,0.037267055362463,0.12052550911903381,179.78656005859375,0.0005477828672155738,-3.0393404960632324,0.01132449135184288,-3.5470773127599386e-06,0.699999988079071,-1.0731220072557335e-06,0.0,False,1
3.0,381.4635009765625,-13.826221466064453,0.03736394643783569,0.10899615287780762,179.78526306152344,0.0005182627937756479,-3.571197986602783,0.013367339968681335,3.0512492799061874e-07,0.691868782043457,4.112541773793055e-06,0.0,False,1
3.1,381.0804138183594,-13.82479190826416,0.03749391436576843,0.0934847965836525,179.78407287597656,0.00045451702317222953,-4.006603717803955,0.01509175356477499,1.94517133422778e-06,0.6641407012939453,-1.1922717249035486e-06,0.0,False,1
3.2,380.6585388183594,-13.823208808898926,0.03762216493487358,0.07821932435035706,179.7830047607422,0.00037717039231210947,-4.361921787261963,0.01650475524365902,2.2312258352030767e-06,0.6469331979751587,-1.788139358804841e-10,0.0,False,1
3.3000000000000003,380.2049865722656,-13.821495056152344,0.03773462027311325,0.06481166183948517,179.78201293945312,0.00031176250195130706,-4.653072357177734,0.017693115398287773,2.288436888875367e-07,0.635290265083313,-3.457367256487487e-06,0.0,False,1
3.4000000000000004,379.725341796875,-13.81967544555664,0.03782785311341286,0.05369211360812187,179.7812042236328,0.00025092021678574383,-4.893970012664795,0.018657291308045387,-1.1442184444376835e-07,0.6271353363990784,2.383887704127119e-06,0.0,False,1
3.5,379.22393798828125,-13.817763328552246,0.038373012095689774,0.04423913359642029,179.7804412841797,0.00021175933943595737,-5.096192836761475,0.019512463361024857,0.012231981381773949,0.6190807819366455,-3.4574866276670946e-06,0.0,False,1
3.6,378.70416259765625,-13.815775871276855,0.038887880742549896,0.03685569763183594,179.77980041503906,0.00017648428911343217,-5.261370658874512,0.020194752141833305,0.0009006524342112243,0.6097145080566406,-1.0734200941442396e-06,0.0,False,1
3.7,378.16943359375,-13.813725471496582,0.03884275257587433,0.030462641268968582,179.77919006347656,0.00014867792197037488,-5.371028423309326,0.02065933868288994,-0.0016617293003946543,0.5984858274459839,-1.0735392379501718e-06,0.0,False,1
3.8000000000000003,377.6208801269531,-13.81161880493164,0.0387098491191864,0.026835812255740166,179.77859497070312,0.00012517152936197817,-5.511998176574707,0.021242031827569008,-0.0014528713654726744,0.699999988079071,2.3835300453356467e-06,0.0,False,1
3.9000000000000004,377.0577697753906,-13.8094482421875,0.038610704243183136,0.02593422681093216,179.7779541015625,0.00012643705122172832,-5.662728786468506,0.021890614181756973,-0.0007991793681867421,0.699999988079071,-6.556510889765832e-10,0.0,False,1
4.0,376.4794006347656,-13.807212829589844,0.038558099418878555,0.02613913267850876,179.77728271484375,0.00013205136929173023,-5.817263126373291,0.022554954513907433,-0.00033617138979025185,0.699999988079071,-6.556510889765832e-10,0.0,False,1
4.1000000000000005,375.8875427246094,-13.804919242858887,0.03855905309319496,0.023816868662834167,179.77676391601562,0.00013137854693923146,-5.9286789894104,0.023040056228637695,-0.0001051918079610914,0.699999988079071,3.4565327950986102e-06,0.0,False,1
4.2,375.2958068847656,-13.802616119384766,0.038647785782814026,0.012704150751233101,179.7766876220703,9.601062629371881e-05,-5.924219608306885,0.0230705663561821,-1.6896292436285876e-05,0.699999988079071,-2.3847221655159956e-06,0.0,False,0
4.3,374.7052307128906,-13.80031681060791,0.038707979023456573,0.0055392831563949585,179.77667236328125,4.0315127989742905e-05,-5.9133195877075195,0.023021981120109558,7.685333912377246e-06,0.699999988079071,-5.364418353970279e-10,0.0,False,0
4.4,374.11578369140625,-13.798023223876953,0.038737885653972626,0.002090037800371647,179.77670288085938,3.3469191293988843e-06,-5.902421951293945,0.022960016503930092,9.668645361671224e-06,0.699999988079071,3.456652166278218e-06,0.0,False,0
4.5,373.52740478515625,-13.795733451843262,0.038751162588596344,0.000601056613959372,179.77670288085938,0.0,-5.891547679901123,0.022928386926651,5.8545838328427635e-06,0.699999988079071,-6.560086944773502e-07,0.0,False,0
4.6000000000000005,372.9350280761719,-13.793432235717773,0.038693446666002274,0.007513207849115133,179.77630615234375,9.597495136404177e-07,-6.0256195068359375,0.023442357778549194,2.5554211333655985e-06,0.699999988079071,2.2647382138529792e-06,0.0,False,0
4.7,372.3065185546875,-13.790994644165039,0.03846506029367447,0.034765660762786865,179.77467346191406,0.00011441537935752422,-6.412593841552734,0.02506927028298378,-7.437419640154985e-07,0.699999988079071,2.8013587325403932e-06,0.0,False,2
4.800000000000001,371.64306640625,-13.788402557373047,0.0383492074906826,0.04855581372976303,179.7731170654297,0.0002475277869962156,-6.745074272155762,0.02655727043747902,-4.958279760103323e-07,0.699999988079071,1.6094446664283169e-06,0.0,False,2
4.9,370.9492492675781,-13.78567123413086,0.038325823843479156,0.05134936049580574,179.7716827392578,0.0003113344428129494,-7.03859281539917,0.027907051146030426,4.1954677953981445e-07,0.699999988079071,-1.1897088825207902e-07,0.0,False,2
5.0,370.22808837890625,-13.782812118530273,0.038341350853443146,0.04948471859097481,179.77037048339844,0.00031649559969082475,-7.30451774597168,0.029133230447769165,-9.7258566711389e-07,0.699999988079071,1.0732412647485035e-06,0.0,False,2
5.1000000000000005,369.48187255859375,-13.779838562011719,0.038366831839084625,0.04642479494214058,179.7691192626953,0.00030082196462899446,-7.55062198638916,0.030281083658337593,-1.3349215350899613e-06,0.699999988079071,1.0733604085544357e-06,0.0,False,2
5.2,368.7121276855469,-13.776751518249512,0.03839120641350746,0.04352196305990219,179.76791381835938,0.00028508517425507307,-7.7820587158203125,0.03138061985373497,5.911795142310439e-07,0.699999988079071,-6.551146611855074e-07,0.0,False,2
5.300000000000001,367.92022705078125,-13.7735595703125,0.03841142728924751,0.04111090674996376,179.76686096191406,0.00026055730995722115,-8.002191543579102,0.03239306062459946,8.772341288931784e-07,0.699999988079071,5.7228207879234105e-06,0.0,False,2
5.4,367.1070556640625,-13.770268440246582,0.03842752426862717,0.03919162228703499,179.76580810546875,0.00024567809305153787,-8.2131929397583,0.03339102491736412,4.386170644465892e-07,0.699999988079071,5.603968929790426e-06,0.0,False,2
5.5,366.2734375,-13.766876220703125,0.03844049200415611,0.03765483200550079,179.7647705078125,0.0002452506741974503,-8.416467666625977,0.03438746556639671,5.721092293242691e-07,0.699999988079071,1.491546527176979e-06,0.0,False,2
5.6000000000000005,365.4200439453125,-13.76339054107666,0.03845113515853882,0.03638441488146782,179.7637939453125,0.00023231591330841184,-8.612937927246094,0.035307880491018295,8.009528755792417e-07,0.699999988079071,7.86972032074118e-06,0.0,False,2
5.7,364.5474548339844,-13.75981330871582,0.03846040740609169,0.035298414528369904,179.7628173828125,0.00023261737078428268,-8.803243637084961,0.0362582802772522,-1.411202788403898e-06,0.699999988079071,2.5653243937995285e-06,0.0,False,2
5.800000000000001,363.65625,-13.756143569946289,0.0384683795273304,0.03434218838810921,179.7618408203125,0.00022759306011721492,-8.987896919250488,0.03715651482343674,1.9070306223056832e-07,0.699999988079071,5.486428563017398e-06,0.0,False,2
5.9,362.7469482421875,-13.752382278442383,0.03847562521696091,0.03348158672451973,179.76084899902344,0.00022851208632346243,-9.167346000671387,0.03806373476982117,-1.2777105666827993e-06,0.699999988079071,2.5662184270913713e-06,0.0,False,2
6.0,361.8199768066406,-13.748530387878418,0.03848222643136978,0.03268928453326225,179.7599334716797,0.00022410842939279974,-9.341986656188965,0.03892837092280388,-5.911795142310439e-07,0.699999988079071,5.487322596309241e-06,0.0,False,2
6.1000000000000005,360.8758239746094,-13.744598388671875,0.0384884811937809,0.031958453357219696,179.759033203125,0.0002193814580095932,-9.512399673461914,0.03978390246629715,2.0977338976990723e-07,0.699999988079071,6.0243010011618026e-06,0.0,False,2
6.2,359.9267883300781,-13.740623474121094,0.03859079256653786,0.019766567274928093,179.75889587402344,0.00017942411068361253,-9.485669136047363,0.039751019328832626,-5.911795142310439e-07,0.699999988079071,8.289933248306625e-06,0.0,False,0
6.300000000000001,358.9794921875,-13.736650466918945,0.03868059068918228,0.00906366016715765,179.759033203125,0.00010013930295826867,-9.466278076171875,0.03968671336770058,3.0512492799061874e-07,0.699999988079071,5.906403202970978e-06,0.0,False,0
6.4,358.0340270996094,-13.732688903808594,0.03872815892100334,0.003408264135941863,179.7592315673828,2.615522316773422e-05,-9.447935104370117,0.03955664113163948,3.8140612446113664e-07,0.699999988079071,1.1092841305071488e-05,0.0,False,0
6.5,357.0903015136719,-13.728737831115723,0.038749635219573975,0.0008537736139260232,179.7594451904297,0.0,-9.42983627319336,0.039447538554668427,7.628122489222733e-07,0.699999988079071,9.245991350326221e-06,0.0,False,0
6.6000000000000005,356.1483459472656,-13.724798202514648,0.038758523762226105,-0.00021856604143977165,179.7596893310547,-3.051757266803179e-05,-9.411823272705078,0.03931901976466179,-6.102498559812375e-07,0.699999988079071,1.1511981938383542e-05,0.0,False,0
6.7,355.1892395019531,-13.72079849243164,0.03860475495457649,0.01814781129360199,179.7587127685547,1.6521737052244134e-05,-9.706304550170898,0.04059266299009323,-5.14898317760526e-07,0.699999988079071,1.0857403140107635e-05,0.0,False,3
6.800000000000001,354.20404052734375,-13.716676712036133,0.0384836383163929,0.032559510320425034,179.75746154785156,0.0001427858223905787,-9.949856758117676,0.04178541153669357,-6.293201408880122e-07,0.699999988079071,1.1394977263989858e-05,0.0,False,3
6.9,353.1964111328125,-13.712442398071289,0.03844388946890831,0.037272341549396515,179.75628662109375,0.00022954381711315364,-10.163142204284668,0.04288182035088539,-3.4517256608523894e-06,0.699999988079071,1.1932611414522398e-05,0.0,False,3
7.0,352.16864013671875,-13.70810317993164,0.03844480589032173,0.037163056433200836,179.75526428222656,0.0002627284557092935,-10.357170104980469,0.043903421610593796,-5.14898317760526e-07,0.699999988079071,1.074171086656861e-05,0.0,False,3
7.1000000000000005,351.12225341796875,-13.70366382598877,0.03845804184675217,0.03558528423309326,179.7543487548828,0.0002535938110668212,-10.538961410522461,0.044825419783592224,-4.958279760103323e-07,0.699999988079071,1.5928686480037868e-05,0.0,False,3
7.2,350.05828857421875,-13.699137687683105,0.03847246244549751,0.03386407718062401,179.75355529785156,0.00023564959701616317,-10.711591720581055,0.045703403651714325,-2.479139880051662e-07,0.6890519261360168,1.7539561667945236e-05,0.0,False,3
7.300000000000001,348.97747802734375,-13.694522857666016,0.03848615661263466,0.032231662422418594,179.75277709960938,0.0002307454269612208,-10.874896049499512,0.0465795136988163,-2.479139880051662e-07,0.6732944846153259,1.2236237125762273e-05,0.0,False,3
7.4,347.8810119628906,-13.689826011657715,0.03849973529577255,0.03061973676085472,179.7520751953125,0.00021094645489938557,-11.028074264526367,0.04734940826892853,3.432655262258777e-07,0.657154381275177,1.8615603039506823e-05,0.0,False,3
7.5,346.76983642578125,-13.685053825378418,0.0385136604309082,0.028966831043362617,179.75144958496094,0.0001986556308111176,-11.170743942260742,0.04809603467583656,1.0107263506142772e-06,0.6422073245048523,1.6769587091403082e-05,0.0,False,3
7.6000000000000005,345.64495849609375,-13.68021011352539,0.03852792829275131,0.027279773727059364,179.75088500976562,0.00018307758728042245,-11.303043365478516,0.048770494759082794,1.3349215350899613e-06,0.6288560032844543,1.903641168610193e-05,0.0,False,3
7.7,344.5074157714844,-13.675301551818848,0.0385420024394989,0.02559271827340126,179.7504425048828,0.00016160396626219153,-11.425477981567383,0.0493784174323082,5.911795142310439e-07,0.6169442534446716,2.1839856344740838e-05,0.0,False,3
7.800000000000001,343.3581848144531,-13.670330047607422,0.038555506616830826,0.023973962292075157,179.75003051757812,0.00015384932339657098,-11.538719177246094,0.04996970668435097,4.386170644465892e-07,0.6062076091766357,1.8265605831402354e-05,0.0,False,3
7.9,342.1981506347656,-13.665308952331543,0.038568247109651566,0.022444000467658043,179.74978637695312,0.00012938670988660306,-11.643482208251953,0.05044351890683174,-7.628123199765469e-08,0.5964066982269287,2.6910602173302323e-05,0.0,False,3
8.0,341.028076171875,-13.660239219665527,0.03858014941215515,0.021030152216553688,179.74961853027344,0.00011390088184271008,-11.740436553955078,0.05092412233352661,-3.814061599882734e-08,0.5873844623565674,2.2681057089357637e-05,0.0,False,3
8.1,339.8487854003906,-13.65512466430664,0.03859121352434158,0.019711924716830254,179.74945068359375,0.00010432118870085105,-11.830204963684082,0.05135082080960274,-4.386170644465892e-07,0.5790333151817322,2.3219943614094518e-05,0.0,False,3
8.200000000000001,338.6640625,-13.649980545043945,0.03863508254289627,0.014486830681562424,179.74966430664062,7.384438504232094e-05,-11.839116096496582,0.051363520324230194,-1.907030799941367e-08,0.5712946057319641,2.8944670702912845e-05,0.0,False,3
8.3,337.4815979003906,-13.644847869873047,0.038699205964803696,0.0068438490852713585,179.7503204345703,1.9245269868406467e-05,-11.815425872802734,0.051191993057727814,2.8605461466213455e-07,0.5641168355941772,2.590757685538847e-05,0.0,False,0
8.4,336.3013916015625,-13.639738082885742,0.038736552000045776,0.0024110565427690744,179.75108337402344,-6.103515261202119e-05,-11.791901588439941,0.050937049090862274,8.390935590796289e-07,0.6020039916038513,2.9904007533332333e-05,0.0,False,0
8.5,335.12359619140625,-13.63465404510498,0.03875402361154556,0.0003278490621596575,179.75186157226562,-9.155272709904239e-05,-11.768437385559082,0.05067497119307518,7.246716791087238e-07,0.6206412315368652,2.9787837775074877e-05,0.0,False,0
8.6,333.9480895996094,-13.629597663879395,0.03876153752207756,-0.0005532453069463372,179.75277709960938,-0.00012207030522404239,-11.745031356811523,0.05036262795329094,7.246716791087238e-07,0.6235310435295105,3.60496633220464e-05,0.0,False,0
8.700000000000001,332.770263671875,-13.624550819396973,0.03871629759669304,0.004863094538450241,179.75323486328125,-0.00012207030522404239,-11.828059196472168,0.050581615418195724,2.9558975711552193e-06,0.6264657974243164,3.0092536690062843e-05,0.0,False,0
8.8,331.58056640625,-13.61946964263916,0.03864118456840515,0.013817472383379936,179.75323486328125,-6.103514533606358e-05,-11.943094253540039,0.05098213255405426,2.4982102786452742e-06,0.6293936967849731,3.528165689203888e-05,0.0,False,4
8.9,330.38037109375,-13.61434555053711,0.038608185946941376,0.01773799955844879,179.75323486328125,5.757529834227171e-06,-12.04059886932373,0.051394566893577576,1.0107263506142772e-06,0.5684863328933716,3.17088961310219e-05,0.0,False,4
9.0,329.171630859375,-13.609188079833984,0.038607120513916016,0.01786094345152378,179.75341796875,3.078175359405577e-05,-12.119210243225098,0.05168174207210541,1.106077775148151e-06,0.5394608378410339,3.689819641294889e-05,0.0,False,4
9.1,327.955810546875,-13.60400390625,0.03861928731203079,0.016392452642321587,179.75375366210938,2.7287298507872038e-05,-12.184483528137207,0.051905546337366104,4.0047643778962083e-07,0.5363132953643799,3.678279972518794e-05,0.0,False,4
9.200000000000001,326.73394775390625,-13.598799705505371,0.03863279148936272,0.014780528843402863,179.7541961669922,1.206514843943296e-05,-12.242440223693848,0.05207004025578499,-8.96304470643372e-07,0.5360846519470215,3.785961962421425e-05,0.0,False,4
9.3,325.50653076171875,-13.59358024597168,0.038643207401037216,0.013537433929741383,179.75466918945312,0.0,-12.296364784240723,0.05219671502709389,-6.293201408880122e-07,0.5347893238067627,3.893655593856238e-05,0.0,False,4
9.4,324.2738952636719,-13.588350296020508,0.03865049406886101,0.012676830403506756,179.7552032470703,-3.051757266803179e-05,-12.347617149353027,0.05229655280709267,-4.386170644465892e-07,0.5314785838127136,4.0013612306211144e-05,0.0,False,4
9.5,323.0362548828125,-13.583113670349121,0.03865552693605423,0.012075773440301418,179.75588989257812,-6.103514533606358e-05,-12.396573066711426,0.0523347333073616,-5.14898317760526e-07,0.5270744562149048,4.6276571083581075e-05,0.0,False,4
9.600000000000001,321.7938537597656,-13.57787036895752,0.03865945711731911,0.01161132100969553,179.75656127929688,-6.103514533606358e-05,-12.44328498840332,0.0524020791053772,-9.535153111528416e-08,0.5223369598388672,4.204917058814317e-05,0.0,False,4
9.700000000000001,320.54693603515625,-13.57262134552002,0.03866289183497429,0.011201509274542332,179.7572784423828,-6.1035138060105965e-05,-12.487751960754395,0.05241582170128822,-5.530388875740755e-07,0.5176929235458374,4.604738933267072e-05,0.0,False,4
9.8,319.29571533203125,-13.567371368408203,0.03866613283753395,0.010819018818438053,179.7580108642578,-6.103515261202119e-05,-12.530022621154785,0.05244981124997139,-1.1442184586485382e-06,0.5132903456687927,4.247581819072366e-05,0.0,False,4
9.9,318.04034423828125,-13.562121391296387,0.038669146597385406,0.010450189001858234,179.75877380371094,-6.103515261202119e-05,-12.57017707824707,0.05243659019470215,-2.479139880051662e-07,0.5091575384140015,4.5937715185573325e-05,0.0,False,4
10.0,316.7810974121094,-13.556869506835938,0.03867223486304283,0.01010184921324253,179.7595672607422,-6.103514533606358e-05,-12.608319282531738,0.052422307431697845,2.7270539249002468e-06,0.5052639245986938,4.528695353656076e-05,0.0,False,4
10.100000000000001,315.51812744140625,-13.551623344421387,0.03867475315928459,0.009767170064151287,179.76039123535156,-6.103514533606358e-05,-12.644550323486328,0.05238960683345795,6.293201408880122e-07,0.5015836954116821,4.582834299071692e-05,0.0,False,4
10.200000000000001,314.25164794921875,-13.546380043029785,0.03867742419242859,0.009452980943024158,179.76126098632812,-6.103514533606358e-05,-12.678973197937012,0.052328746765851974,-8.390935590796289e-07,0.4980947971343994,4.8098383558681235e-05,0.0,False,4
10.3,312.9818420410156,-13.541142463684082,0.03868001699447632,0.009145623072981834,179.7621612548828,-6.103514533606358e-05,-12.711674690246582,0.05226588249206543,-5.7210922221884175e-08,0.49478471279144287,4.744786201626994e-05,0.0,False,4
10.4,311.7088317871094,-13.53591251373291,0.03868238255381584,0.008858755230903625,179.76307678222656,-6.1035138060105965e-05,-12.74274730682373,0.05218608304858208,-3.814061599882734e-08,0.4916420578956604,4.798948793904856e-05,0.0,False,4
10.5,310.4328308105469,-13.530692100524902,0.03868471086025238,0.008592377416789532,179.76405334472656,-6.1035138060105965e-05,-12.7722749710083,0.052079539746046066,-7.437419640154985e-07,0.4886622428894043,5.025976861361414e-05,0.0,False,4
10.600000000000001,309.1539611816406,-13.525482177734375,0.0386868454515934,0.008339660242199898,179.7650604248047,-6.103515261202119e-05,-12.800337791442871,0.05195917561650276,-1.1251480600549257e-06,0.4858337640762329,5.133807644597255e-05,0.0,False,4
10.700000000000001,307.8723449707031,-13.520285606384277,0.03868894651532173,0.008093773387372494,179.76620483398438,-6.103514533606358e-05,-12.827011108398438,0.05180959030985832,2.9558975711552193e-06,0.48314836621284485,5.414509723777883e-05,0.0,False,4
10.8,306.5881652832031,-13.515104293823242,0.03869089111685753,0.00786154717206955,179.767333984375,-6.103514533606358e-05,-12.852364540100098,0.051669828593730927,-1.3730621049035108e-06,0.480600506067276,5.230301758274436e-05,0.0,False,4
10.9,305.301513671875,-13.50993537902832,0.03869268298149109,0.007642981130629778,179.76832580566406,-6.103514533606358e-05,-12.87646198272705,0.051565639674663544,-4.576873777750734e-07,0.47818198800086975,4.593080302583985e-05,0.0,False,4
11.0,304.0125427246094,-13.504779815673828,0.03869447484612465,0.007438075728714466,179.76947021484375,-9.1552734375e-05,-12.899372100830078,0.05136123672127724,-5.721092293242691e-07,0.47588759660720825,5.6426943046972156e-05,0.0,False,4
11.100000000000001,302.7213134765625,-13.499643325805664,0.03869619220495224,0.007240000180900097,179.77066040039062,-9.155271982308477e-05,-12.92115306854248,0.05119328945875168,-6.865310524517554e-07,0.473712682723999,5.33928869117517e-05,0.0,False,4
11.200000000000001,301.4279479980469,-13.494524002075195,0.03869764134287834,0.0070555848069489,179.7718048095703,-9.155274165095761e-05,-12.941865921020508,0.051020409911870956,-1.2967809652764117e-06,0.4716465473175049,5.220657476456836e-05,0.0,False,4
11.3,300.1325988769531,-13.489421844482422,0.03869905322790146,0.006878000218421221,179.77297973632812,-9.155272709904239e-05,-12.96156120300293,0.05083756893873215,-8.772341288931784e-07,0.46968722343444824,5.2212359150871634e-05,0.0,False,4
11.4,298.8353576660156,-13.48434066772461,0.03870061784982681,0.006707245483994484,179.77415466308594,-9.155272709904239e-05,-12.980292320251465,0.050635237246751785,2.6698430133365036e-07,0.46782568097114563,5.3946732805343345e-05,0.0,False,4
11.5,297.5362548828125,-13.479276657104492,0.03870191425085068,0.00655015092343092,179.77532958984375,-9.1552734375e-05,-12.998109817504883,0.05045221745967865,4.767576911035576e-07,0.46606236696243286,5.103188595967367e-05,0.0,False,4
11.600000000000001,296.2354736328125,-13.474234580993652,0.03870328888297081,0.006399886682629585,179.77651977539062,-9.155274165095761e-05,-13.015056610107422,0.05022219568490982,0.0,0.4643881022930145,5.5686949053779244e-05,0.0,False,4
11.700000000000001,294.9330139160156,-13.46921443939209,0.03870450705289841,0.006256452761590481,179.77774047851562,-9.155270527116954e-05,-13.031182289123535,0.050013430416584015,-1.3349215066682518e-07,0.4627993404865265,5.330866406438872e-05,0.0,False,4
11.8,293.62896728515625,-13.464214324951172,0.03870569169521332,0.006119849160313606,179.77890014648438,-9.155271254712716e-05,-13.046524047851562,0.049834221601486206,-3.2419524131910293e-07,0.4612928628921509,4.812878250959329e-05,0.0,False,4
11.9,292.3235168457031,-13.459235191345215,0.03870679810643196,0.005990075413137674,179.78009033203125,-9.155271982308477e-05,-13.061123847961426,0.04959964007139206,2.0786635559488786e-06,0.4598611891269684,5.3439380280906335e-05,0.0,False,4
12.0,291.0166015625,-13.454277038574219,0.03870778903365135,0.005867131985723972,179.7813262939453,-9.155271254712716e-05,-13.075017929077148,0.049367111176252365,-8.200231604860164e-07,0.4585045278072357,5.398166103987023e-05,0.0,False,4
12.100000000000001,289.7083435058594,-13.449341773986816,0.03870877996087074,0.0057510188780725,179.78250122070312,-9.155271982308477e-05,-13.088241577148438,0.049166545271873474,-1.4684136431242223e-06,0.45721739530563354,4.933822128805332e-05,0.0,False,4
12.200000000000001,288.3987731933594,-13.444429397583008,0.038709696382284164,0.005641736090183258,179.78369140625,-9.1552734375e-05,-13.100833892822266,0.04892086982727051,-7.05601394201949e-07,0.4559967517852783,5.345672252587974e-05,0.0,False,4
12.3,287.0879821777344,-13.43954086303711,0.038710612803697586,0.0055392831563949585,179.784912109375,-9.155272709904239e-05,-13.112821578979492,0.04868844896554947,-5.14898317760526e-07,0.45483970642089844,5.2270414016675204e-05,0.0,False,4
12.4,285.7760314941406,-13.434673309326172,0.038711488246917725,0.005436830222606659,179.78604125976562,-9.155272709904239e-05,-13.124238014221191,0.048489537090063095,-1.0488669204278267e-06,0.4537377953529358,4.709041240857914e-05,0.0,False,4
12.5,284.46295166015625,-13.429829597473145,0.038712289184331894,0.005341207608580589,179.7872314453125,-9.1552734375e-05,-13.135111808776855,0.04823674261569977,2.002382188948104e-06,0.45269665122032166,5.240088648861274e-05,0.0,False,4
12.600000000000001,283.1488342285156,-13.425007820129395,0.038712941110134125,0.00525241531431675,179.7883758544922,-9.1552734375e-05,-13.145468711853027,0.048026859760284424,-1.220499711962475e-06,0.45170724391937256,4.775726847583428e-05,0.0,False,4
12.700000000000001,281.8337097167969,-13.420207977294922,0.038713742047548294,0.0051704528741538525,179.7894287109375,-9.155274165095761e-05,-13.155336380004883,0.047826845198869705,-6.102498559812375e-07,0.45076948404312134,4.4961212552152574e-05,0.0,False,4
12.8,280.5176086425781,-13.41543197631836,0.03871442750096321,0.005088490433990955,179.79058837890625,-9.155271982308477e-05,-13.164739608764648,0.04757818207144737,-1.0488669204278267e-06,0.44987940788269043,5.0271450163563713e-05,0.0,False,4
12.9,279.2005920410156,-13.410676002502441,0.03871503844857216,0.0050065284594893456,179.79176330566406,-9.1552734375e-05,-13.173702239990234,0.04736003652215004,-6.293201408880122e-07,0.449036180973053,4.735618858831003e-05,0.0,False,4
13.0,277.8827209472656,-13.40594482421875,0.03871564939618111,0.004938226658850908,179.79293823242188,-9.1552734375e-05,-13.182247161865234,0.04712419956922531,-8.581638439864037e-07,0.44823578000068665,4.85536438645795e-05,0.0,False,4
13.100000000000001,276.56402587890625,-13.401236534118652,0.038716256618499756,0.004869924392551184,179.79409790039062,-9.155272709904239e-05,-13.190394401550293,0.04688777029514313,-1.2586402817760245e-06,0.4474767744541168,4.855900988331996e-05,0.0,False,4
13.200000000000001,275.2445373535156,-13.396551132202148,0.03871675580739975,0.004808452911674976,179.79515075683594,-9.1552734375e-05,-13.198165893554688,0.04668870195746422,1.8116792261935188e-06,0.44675639271736145,4.337858990766108e-05,0.0,False,4
13.3,273.92425537109375,-13.391884803771973,0.038717325776815414,0.004746981430798769,179.79617309570312,-9.155271982308477e-05,-13.20557975769043,0.04649033769965172,-1.2777105666827993e-06,0.4460735023021698,4.17742739955429e-05,0.0,False,4
13.4,272.6032409667969,-13.387238502502441,0.03871782124042511,0.004685509484261274,179.79718017578125,-9.155271982308477e-05,-13.212652206420898,0.04626047983765602,-5.7210922221884175e-08,0.44542595744132996,4.5355558540904894e-05,0.0,False,4
13.5,271.28155517578125,-13.382614135742188,0.038718316704034805,0.004624038003385067,179.79815673828125,-9.155271254712716e-05,-13.219405174255371,0.04608988016843796,2.288436888875367e-07,0.44481176137924194,3.844618913717568e-05,0.0,False,4
13.600000000000001,269.9592590332031,-13.378009796142578,0.038718774914741516,0.004569396376609802,179.7991180419922,-9.155272709904239e-05,-13.225849151611328,0.04586777463555336,3.0512492799061874e-07,0.444230854511261,4.321932647144422e-05,0.0,False,4
13.700000000000001,268.6363220214844,-13.373424530029297,0.03871927037835121,0.004521585069596767,179.800048828125,-9.155272709904239e-05,-13.232003211975098,0.04568047821521759,-1.9070306223056832e-07,0.4436773359775543,3.9766906411387026e-05,0.0,False,4
13.8,267.3127746582031,-13.368861198425293,0.03871965408325195,0.004473773762583733,179.8009490966797,-9.155270527116954e-05,-13.23788070678711,0.045493487268686295,-2.288436888875367e-07,0.4431556761264801,3.869855572702363e-05,0.0,False,4
13.9,265.9886474609375,-13.3643159866333,0.03871988132596016,0.00443279230967164,179.8018341064453,-9.1552734375e-05,-13.243497848510742,0.04529818892478943,-5.339686026673007e-07,0.4426588714122772,3.935867425752804e-05,0.0,False,4
14.0,264.6639709472656,-13.35978889465332,0.038720302283763885,0.0043918113224208355,179.80270385742188,-9.1552734375e-05,-13.248866081237793,0.04513411596417427,-1.4302730733106728e-06,0.4421898126602173,3.536945587256923e-05,0.0,False,4
14.100000000000001,263.33880615234375,-13.355278968811035,0.038720760494470596,0.004350830335170031,179.80355834960938,-9.155271254712716e-05,-13.253998756408691,0.04493410885334015,-8.772341288931784e-07,0.44174349308013916,3.895002737408504e-05,0.0,False,4
14.200000000000001,262.01312255859375,-13.350786209106445,0.038721103221178055,0.004309849347919226,179.8043212890625,-9.155271254712716e-05,-13.25890827178955,0.04479349032044411,-1.1442184586485382e-06,0.44132092595100403,3.2039941288530827e-05,0.0,False,4
14.3,260.68695068359375,-13.34631061553955,0.038721371442079544,0.004275698214769363,179.80506896972656,-9.155271254712716e-05,-13.263604164123535,0.04462899640202522,-7.05601394201949e-07,0.44092100858688354,3.3355176128679886e-05,0.0,False,4
14.4,259.3603210449219,-13.341851234436035,0.038721714168787,0.004241547081619501,179.80584716796875,-9.1552734375e-05,-13.268098831176758,0.0444619357585907,-4.0047643778962083e-07,0.44054123759269714,3.4014701668638736e-05,0.0,False,4
14.5,258.03326416015625,-13.337408065795898,0.038721904158592224,0.004207396414130926,179.80662536621094,-9.155272709904239e-05,-13.272403717041016,0.04428662732243538,-1.5256246399530937e-07,0.4401819705963135,3.52106690115761e-05,0.0,False,4
14.600000000000001,256.7057800292969,-13.33298110961914,0.03872224688529968,0.004180075600743294,179.8073272705078,-9.155272709904239e-05,-13.276521682739258,0.044165752828121185,-1.907030799941367e-08,0.4398411512374878,2.8300164558459073e-05,0.0,False,4
14.700000000000001,255.3778839111328,-13.328567504882812,0.03872247785329819,0.004152754787355661,179.8079833984375,-9.155272709904239e-05,-13.280471801757812,0.04402100294828415,-4.767576911035576e-07,0.4395180344581604,2.9614984669024125e-05,0.0,False,4
14.8,254.04962158203125,-13.32416820526123,0.03872266784310341,0.004125433973968029,179.80862426757812,-9.155274165095761e-05,-13.284255027770996,0.0438741110265255,-1.5256246399530937e-07,0.4392154812812805,3.027409184142016e-05,0.0,False,4
14.9,252.72100830078125,-13.319785118103027,0.0387229323387146,0.004098113160580397,179.80929565429688,-9.155271982308477e-05,-13.287886619567871,0.0437326617538929,0.0,0.43892374634742737,2.9741047910647467e-05,0.0,False,4
15.0,251.39202880859375,-13.315410614013672,0.03872301056981087,0.004070792347192764,179.80982971191406,-6.103515261202119e-05,-13.291365623474121,0.043646786361932755,-7.818825906724669e-07,0.4386507272720337,2.229356687166728e-05,0.0,False,4
15.100000000000001,250.06271362304688,-13.311050415039062,0.038723353296518326,0.004050301853567362,179.81040954589844,-6.103515261202119e-05,-13.294706344604492,0.04348786547780037,-1.6781871181592578e-06,0.4383898675441742,2.998572563228663e-05,0.0,False,4
15.200000000000001,248.73304748535156,-13.306702613830566,0.03872354328632355,0.0040229810401797295,179.81092834472656,-6.103514533606358e-05,-13.297913551330566,0.0433930903673172,1.5637651813449338e-06,0.4381462335586548,2.3611009964952245e-05,0.0,False,4
15.3,247.403076171875,-13.30236530303955,0.03872377425432205,0.004002490546554327,179.8114471435547,-6.103514533606358e-05,-13.300992012023926,0.04327148199081421,-3.0512492799061874e-07,0.43791303038597107,2.5461673430982046e-05,0.0,False,4
15.4,246.0727996826172,-13.298038482666016,0.03872392699122429,0.0039820000529289246,179.8118896484375,-6.103514533606358e-05,-13.303956031799316,0.043197229504585266,-9.916559520206647e-07,0.43769383430480957,1.9742310541914776e-05,0.0,False,4
15.5,244.7422332763672,-13.293720245361328,0.038724079728126526,0.003961509559303522,179.81234741210938,-6.103515261202119e-05,-13.306801795959473,0.043089330196380615,-4.767576911035576e-07,0.4374866485595703,2.278477040817961e-05,0.0,False,4
15.600000000000001,243.41140747070312,-13.289412498474121,0.03872423246502876,0.00394101906567812,179.81275939941406,-6.103515625e-05,-13.30954360961914,0.04300527647137642,-4.386170644465892e-07,0.4372873902320862,2.0522296836134046e-05,0.0,False,4
15.700000000000001,242.08029174804688,-13.285113334655762,0.038724385201931,0.00392735842615366,179.8131561279297,-6.103514533606358e-05,-13.31218147277832,0.04292532056570053,-1.0679372053346015e-06,0.4371030926704407,1.9451797925285064e-05,0.0,False,4
15.8,240.74891662597656,-13.280820846557617,0.038724496960639954,0.003913698252290487,179.81353759765625,-6.1035138060105965e-05,-13.314717292785645,0.042851656675338745,1.1442184444376835e-07,0.43692463636398315,1.8381178961135447e-05,0.0,False,4
15.9,239.41729736328125,-13.276538848876953,0.03872464969754219,0.003893207525834441,179.81393432617188,-6.103515625e-05,-13.31716537475586,0.042757824063301086,-4.1954677953981445e-07,0.43675851821899414,2.0767629393958487e-05,0.0,False,4
16.0,238.08544921875,-13.272262573242188,0.03872480243444443,0.003879547119140625,179.81423950195312,-6.1035138060105965e-05,-13.319522857666016,0.042708318680524826,1.907030799941367e-08,0.4366043508052826,1.558411167934537e-05,0.0,False,4
16.1,236.75335693359375,-13.267993927001953,0.03872491791844368,0.0038658869452774525,179.81455993652344,-6.103515625e-05,-13.321796417236328,0.04263487085700035,4.0047643778962083e-07,0.43645280599594116,1.743388202157803e-05,0.0,False,4
16.2,235.42105102539062,-13.263731002807617,0.03872507065534592,0.0038522265385836363,179.81484985351562,-6.1035138060105965e-05,-13.323991775512695,0.042569227516651154,1.9070306223056832e-07,0.43631383776664734,1.6899406546144746e-05,0.0,False,4
16.3,234.08853149414062,-13.259474754333496,0.038725145161151886,0.00383856613188982,179.81512451171875,-6.103515261202119e-05,-13.326112747192383,0.04250694066286087,7.246716791087238e-07,0.4361821115016937,1.636487286305055e-05,0.0,False,4
16.400000000000002,232.75579833984375,-13.255224227905273,0.03872529789805412,0.003824905725196004,179.81532287597656,-6.103515261202119e-05,-13.32816219329834,0.042501114308834076,2.8605461466213455e-07,0.43605542182922363,8.915901162254158e-06,0.0,False,4
16.5,231.42286682128906,-13.250977516174316,0.03872537612915039,0.0038180756382644176,179.81553649902344,-6.103515261202119e-05,-13.330141067504883,0.0424225889146328,3.814061599882734e-08,0.43593794107437134,1.6606569261057302e-05,0.0,False,4
16.6,230.08973693847656,-13.246734619140625,0.03872545063495636,0.0038112453185021877,179.8157501220703,-6.103515261202119e-05,-13.332061767578125,0.04238197207450867,2.0977338976990723e-07,0.43582603335380554,1.36875514726853e-05,0.0,False,4
16.7,228.75643920898438,-13.242497444152832,0.03872552886605263,0.0037975849118083715,179.81594848632812,-6.103515261202119e-05,-13.333916664123535,0.04235295206308365,-4.0047643778962083e-07,0.4357225298881531,1.142406472354196e-05,0.0,False,4
16.8,227.4229278564453,-13.238262176513672,0.0387256033718586,0.0037907548248767853,179.81607055664062,-6.1035138060105965e-05,-13.33571720123291,0.042341165244579315,-5.7210922221884175e-08,0.43561995029449463,8.623957910458557e-06,0.0,False,4
16.900000000000002,226.08924865722656,-13.234027862548828,0.038725681602954865,0.0037839245051145554,179.816162109375,-6.103515261202119e-05,-13.337458610534668,0.04231070727109909,-1.3349215066682518e-07,0.4355289340019226,1.0472953363205306e-05,0.0,False,4
17.0,224.75538635253906,-13.229798316955566,0.038725756108760834,0.003777094418182969,179.81629943847656,-6.1035138060105965e-05,-13.33914852142334,0.042275313287973404,-4.1954677953981445e-07,0.43543949723243713,1.1666297723422758e-05,0.0,False,4
17.1,223.42138671875,-13.225570678710938,0.038725871592760086,0.003770264331251383,179.81640625,-6.103515261202119e-05,-13.340789794921875,0.042268913239240646,-7.05601394201949e-07,0.4353584349155426,8.21036064735381e-06,0.0,False,4
17.2,222.08721923828125,-13.221344947814941,0.038725946098566055,0.003770264331251383,179.81640625,-6.103515261202119e-05,-13.342382431030273,0.042250651866197586,-7.628122489222733e-07,0.4352800250053406,8.867084943631198e-06,0.0,False,4
17.3,220.7528839111328,-13.217117309570312,0.03872602432966232,0.003770264331251383,179.81640625,-6.103515261202119e-05,-13.34393310546875,0.042238157242536545,-8.581638439864037e-07,0.43520620465278625,8.331656317750458e-06,0.0,False,4
17.400000000000002,219.4184112548828,-13.212891578674316,0.03872609883546829,0.003770264331251383,179.81640625,-6.103515261202119e-05,-13.345438957214355,0.042242381721735,-6.865310524517554e-07,0.4351383149623871,6.067573849577457e-06,0.0,False,4
17.5,218.0837860107422,-13.20866584777832,0.03872606158256531,0.003770264331251383,179.81640625,-6.103515261202119e-05,-13.346907615661621,0.04223788157105446,0.0,0.4350719451904297,6.724059858242981e-06,0.0,False,4
17.6,216.74899291992188,-13.204438209533691,0.038726139813661575,0.003770264331251383,179.81640625,-6.103515261202119e-05,-13.348333358764648,0.04222573712468147,-3.432655262258777e-07,0.4350123107433319,7.91698676039232e-06,0.0,False,4
17.7,215.41407775878906,-13.200212478637695,0.038726214319467545,0.003770264331251383,179.81640625,-6.103515261202119e-05,-13.349724769592285,0.04224255308508873,1.9070306223056832e-07,0.4349536895751953,4.4606326810026076e-06,0.0,False,4
17.8,214.0790252685547,-13.195985794067383,0.038726214319467545,0.003770264331251383,179.81640625,-6.103515261202119e-05,-13.351085662841797,0.042247723788022995,6.483904826382059e-07,0.4349026381969452,5.116939519211883e-06,0.0,False,4
17.900000000000002,212.74383544921875,-13.191760063171387,0.03872629255056381,0.003770264331251383,179.81640625,-6.103515261202119e-05,-13.352410316467285,0.04224572703242302,6.293201408880122e-07,0.43485161662101746,6.3096881603996735e-06,0.0,False,4
18.0,211.4085235595703,-13.18753433227539,0.03872636705636978,0.003770264331251383,179.81640625,-6.103515261202119e-05,-13.353705406188965,0.04224584624171257,1.0107263506142772e-06,0.4348025619983673,6.310343906079652e-06,0.0,False,4
18.1,210.0730743408203,-13.183307647705078,0.03872636705636978,0.003770264331251383,179.81640625,-6.103515261202119e-05,-13.35496997833252,0.04227246716618538,7.818825906724669e-07,0.43476030230522156,2.8538106562336907e-06,0.0,False,4
18.2,208.73751831054688,-13.179082870483398,0.038726482540369034,0.003770264331251383,179.81640625,-6.103515261202119e-05,-13.356204986572266,0.042287591844797134,8.009528755792417e-07,0.43471845984458923,3.5099387787340675e-06,0.0,False,4
18.3,207.40182495117188,-13.17485237121582,0.038726482540369034,0.003770264331251383,179.81640625,-6.103515261202119e-05,-13.357414245605469,0.04230869561433792,-3.814061599882734e-08,0.4346807301044464,2.9739139790763147e-06,0.0,False,4
18.400000000000002,206.0779571533203,-13.17065143585205,0.038854580372571945,-0.011502037756145,179.81732177734375,-9.155271982308477e-05,-13.056721687316895,0.04132843762636185,-7.628123199765469e-08,0.0,4.166424332652241e-06,1.0,False,4
18.5,204.80621337890625,-13.166613578796387,0.039164330810308456,-0.04839871823787689,179.82089233398438,-0.00030517575214616954,-12.504321098327637,0.0392279177904129,3.814061599882734e-08,0.0,2.438247292957385e-06,0.3675272464752197,False,4
18.6,203.5761260986328,-13.162769317626953,0.03924077749252319,-0.05749652907252312,179.823974609375,-0.0005798338679596782,-12.195417404174805,0.037581104785203934,7.628122489222733e-07,0.0,1.9021035768673755e-06,0.0961199402809143,False,4
18.7,202.3660125732422,-13.159062385559082,0.0391341969370842,-0.044799208641052246,179.82553100585938,-0.0006408692570403218,-12.048002243041992,0.03657996281981468,6.483904826382059e-07,0.18448200821876526,1.3659000615007244e-06,0.0,False,4
18.8,201.16783142089844,-13.155439376831055,0.03901826590299606,-0.03097490593791008,179.82644653320312,-0.0005493162316270173,-11.932849884033203,0.03588734194636345,9.916559520206647e-07,0.06471873819828033,4.2868259697570466e-06,0.0,False,4
18.900000000000002,199.9827117919922,-13.151875495910645,0.03896699845790863,-0.024868717417120934,179.82723999023438,-0.00042724612285383046,-11.787647247314453,0.035285595804452896,7.628123199765469e-08,0.0,-3.819346602540463e-06,0.025060579180717468,False,4
19.0,198.8131866455078,-13.148380279541016,0.038959406316280365,-0.023987622931599617,179.8281707763672,-0.0003662109375,-11.628092765808105,0.0345962829887867,-8.200231604860164e-07,0.0,2.6776790491567226e-06,0.027600586414337158,False,4
19.1,197.65843200683594,-13.144947052001953,0.038949716836214066,-0.02286064252257347,179.8290557861328,-0.0003356933011673391,-11.492984771728516,0.03400438651442528,-7.246716791087238e-07,0.020142734050750732,1.48570541114168e-06,0.0,False,4
19.200000000000003,196.51649475097656,-13.141571998596191,0.038934383541345596,-0.021030152216553688,179.829833984375,-0.0003051758394576609,-11.36808967590332,0.03346231207251549,-2.479139880051662e-07,0.05917205289006233,1.48582466863445e-06,0.0,False,4
19.3,195.3865509033203,-13.138245582580566,0.03892034292221069,-0.019349925220012665,179.83047485351562,-0.00027465823222883046,-11.250776290893555,0.03301117569208145,4.386170644465892e-07,0.06587298214435577,-5.428433269116795e-06,0.0,False,4
19.400000000000002,194.26803588867188,-13.134968757629395,0.038908861577510834,-0.01797705702483654,179.8311309814453,-0.000274658203125,-11.139406204223633,0.032518234103918076,1.1442184444376835e-07,0.08099031448364258,2.7970077098871116e-06,0.0,False,4
19.5,193.16030883789062,-13.13173770904541,0.0388990193605423,-0.016815925016999245,179.83168029785156,-0.00024414058134425431,-11.034005165100098,0.03211516886949539,-5.530388875740755e-07,0.0966402143239975,-3.0443668492807774e-06,0.0,False,4
19.6,192.06271362304688,-13.128548622131348,0.038889940828084946,-0.01571626402437687,179.83224487304688,-0.00024414058134425431,-10.934616088867188,0.03168617561459541,-6.674607675449806e-07,0.11240722984075546,2.796888338707504e-06,0.0,False,4
19.700000000000003,190.97476196289062,-13.125396728515625,0.03888120502233505,-0.014678075909614563,179.83270263671875,-0.00021362303232308477,-10.841140747070312,0.031338997185230255,-9.344450404569216e-07,0.127085343003273,-3.0444859930867096e-06,0.0,False,4
19.8,189.89581298828125,-13.122282028198242,0.03887277469038963,-0.013674037531018257,179.83323669433594,-0.00021362303232308477,-10.753313064575195,0.030938928946852684,-6.293201408880122e-07,0.14065487682819366,6.253957508306485e-06,0.0,False,4
19.900000000000002,188.82533264160156,-13.119202613830566,0.03886464983224869,-0.01272464171051979,179.83367919921875,-0.00018310548330191523,-10.670806884765625,0.030642999336123466,-5.14898317760526e-07,0.15323400497436523,-1.971483243323746e-06,0.0,False,4
20.0,187.76283264160156,-13.116151809692383,0.03885709494352341,-0.0118093965575099,179.8340301513672,-0.00018310543964616954,-10.593294143676758,0.03034539893269539,-4.0047643778962083e-07,0.16499364376068115,-1.3158917226974154e-06,0.0,False,4
20.1,186.70779418945312,-13.11313247680664,0.03884992375969887,-0.010955622419714928,179.83441162109375,-0.00018310548330191523,-10.520464897155762,0.03004915826022625,-4.386170644465892e-07,0.17603322863578796,1.6047358712967252e-06,0.0,False,4
20.200000000000003,185.65975952148438,-13.110137939453125,0.03884313628077507,-0.010163321159780025,179.83473205566406,-0.00018310546875,-10.45203971862793,0.02979988232254982,-7.818825906724669e-07,0.18641287088394165,-1.3159512946003815e-06,0.0,False,4
20.3,184.6183319091797,-13.107169151306152,0.0388367660343647,-0.009398339316248894,179.83499145507812,-0.00018310548330191523,-10.387760162353516,0.02956504002213478,-1.2586402817760245e-06,0.19617746770381927,-1.8525122413848294e-06,0.0,False,4
20.400000000000002,183.58309936523438,-13.104222297668457,0.03883081302046776,-0.008701660670340061,179.83526611328125,-0.00018310545419808477,-10.32737922668457,0.029336929321289062,-1.7163276311293885e-07,0.20535290241241455,-6.605386033697869e-07,0.0,False,4
20.5,182.55372619628906,-13.101298332214355,0.03882516920566559,-0.008025472052395344,179.83547973632812,-0.00018310543964616954,-10.270672798156738,0.02912726067006588,-3.0512492799061874e-07,0.21397022902965546,-6.606578608625568e-07,0.0,False,4
20.6,181.52978515625,-13.098395347595215,0.03881990164518356,-0.007390264421701431,179.83570861816406,-0.00018310548330191523,-10.21741771697998,0.028920477256178856,-8.200231604860164e-07,0.22206702828407288,1.0678172657208052e-06,0.0,False,4
20.700000000000003,180.51097106933594,-13.095511436462402,0.038814790546894073,-0.006775547284632921,179.8358612060547,-0.00018310546875,-10.167411804199219,0.028763793408870697,-1.353991819996736e-06,0.22966721653938293,-3.581523742468562e-06,0.0,False,4
20.8,179.4969940185547,-13.092642784118652,0.03881021589040756,-0.006229132413864136,179.8359832763672,-0.00018310545419808477,-10.120460510253906,0.028602996841073036,-1.029796635521052e-06,0.236807718873024,-2.926111164924805e-06,0.0,False,4
20.900000000000002,178.48751831054688,-13.089788436889648,0.03880586475133896,-0.005710037890821695,179.83602905273438,-0.00018310545419808477,-10.076380729675293,0.028482045978307724,-2.3837885692046257e-06,0.24351182579994202,-6.920039595570415e-06,0.0,False,4
21.0,177.48231506347656,-13.086949348449707,0.03880174458026886,-0.005218264181166887,179.83612060546875,-0.00018310543964616954,-10.035002708435059,0.02832498960196972,-1.8307495111002936e-06,0.24980923533439636,-1.6155838693521218e-06,0.0,False,4
21.1,176.48110961914062,-13.084120750427246,0.038797855377197266,-0.0047606416046619415,179.83615112304688,-0.00018310548330191523,-9.996162414550781,0.02823513001203537,-1.792608941286744e-06,0.2557218670845032,-7.99381723481929e-06,0.0,False,4
21.200000000000003,175.483642578125,-13.081304550170898,0.03879419341683388,-0.004337169695645571,179.83615112304688,-0.00018310548330191523,-9.959708213806152,0.02812579832971096,-1.8116792261935188e-06,0.2612731456756592,-6.146669420559192e-06,0.0,False,4
21.3,174.4897003173828,-13.078496932983398,0.038790758699178696,-0.00394101906567812,179.83612060546875,-0.00018310543964616954,-9.925493240356445,0.028032537549734116,-1.4302730733106728e-06,0.26648738980293274,-6.683766969217686e-06,0.0,False,4
21.400000000000002,173.49905395507812,-13.075697898864746,0.03878755494952202,-0.0035721887834370136,179.83609008789062,-0.00018310546875,-9.893386840820312,0.027949955314397812,-2.059593271042104e-06,0.2713829576969147,-7.220923635031795e-06,0.0,False,4
21.5,172.51145935058594,-13.072907447814941,0.03878457844257355,-0.0032033585011959076,179.83596801757812,-0.00018310545419808477,-9.863261222839355,0.027900459244847298,-2.3456477720174007e-06,0.2759827673435211,-1.121532932302216e-05,0.0,False,4
21.6,171.5268096923828,-13.070121765136719,0.038781680166721344,-0.002868679352104664,179.8358154296875,-0.00018310546875,-9.834994316101074,0.027846267446875572,-2.326577487110626e-06,0.28029942512512207,-1.1097133210569154e-05,0.0,False,4
21.700000000000003,170.54486083984375,-13.067340850830078,0.038779161870479584,-0.002568150870501995,179.8355712890625,-0.00018310546875,-9.808475494384766,0.027828430756926537,-9.153747555501468e-07,0.28435128927230835,-1.5628338587703183e-05,0.0,False,4
21.8,169.56546020507812,-13.064559936523438,0.038776569068431854,-0.0022607925347983837,179.83531188964844,-0.00018310545419808477,-9.783597946166992,0.027807161211967468,5.7210922221884175e-08,0.2881585359573364,-1.6047000826802105e-05,0.0,False,4
21.900000000000002,168.58847045898438,-13.061785697937012,0.038774166256189346,-0.0019875848665833473,179.83506774902344,-0.00018310548330191523,-9.760262489318848,0.027753464877605438,7.628122489222733e-07,0.2917310297489166,-1.0743558050307911e-05,0.0,False,4
22.0,167.61373901367188,-13.059012413024902,0.03877195343375206,-0.0017075472278520465,179.83477783203125,-0.00018310543964616954,-9.73837661743164,0.02777455560863018,1.0107263506142772e-06,0.295088529586792,-1.8851398635888472e-05,0.0,False,4
22.1,166.64112854003906,-13.056239128112793,0.038769930601119995,-0.0014684905763715506,179.83445739746094,-0.00018310546875,-9.717849731445312,0.027746541425585747,7.05601394201949e-07,0.29823875427246094,-1.408463685947936e-05,0.0,False,4
22.200000000000003,165.6704864501953,-13.053466796875,0.0387679859995842,-0.001249924534931779,179.83404541015625,-0.00018310548330191523,-9.698601722717285,0.027793291956186295,6.293201408880122e-07,0.30119630694389343,-2.272921847179532e-05,0.0,False,4
22.3,164.70169067382812,-13.050689697265625,0.038766153156757355,-0.0010381886968389153,179.8336181640625,-0.00018310548330191523,-9.680554389953613,0.027804013341665268,5.339686026673007e-07,0.303975373506546,-2.0227849745424464e-05,0.0,False,4
22.400000000000002,163.734619140625,-13.047908782958984,0.03876447677612305,-0.0008264528587460518,179.83316040039062,-0.00018310543964616954,-9.6636323928833,0.027831265702843666,-1.3349215066682518e-07,0.30658185482025146,-2.1302877939888276e-05,0.0,False,4
22.5,162.76919555664062,-13.04512882232666,0.03876279667019844,-0.0006420377176254988,179.83270263671875,-0.00018310546875,-9.647769927978516,0.027855193242430687,2.479139880051662e-07,0.3090309500694275,-2.064943328150548e-05,0.0,False,4
22.6,161.8052978515625,-13.042342185974121,0.038761310279369354,-0.00045762263471260667,179.8321533203125,-0.00015258787607308477,-9.63290023803711,0.027945932000875473,5.14898317760526e-07,0.3113318979740143,-2.9831111532985233e-05,0.0,False,4
22.700000000000003,160.856201171875,-13.039582252502441,0.03890085220336914,-0.017089132219552994,179.8325958251953,-0.00018310549785383046,-9.29029369354248,0.026987262070178986,4.0047643778962083e-07,0.0,-2.44097118411446e-05,1.0,False,4
22.8,159.98635864257812,-13.037027359008789,0.03944665938615799,-0.0820920392870903,179.83700561523438,-0.0003967284574173391,-8.200151443481445,0.023688729852437973,-2.1740149804827524e-06,0.0,-2.7063249945058487e-05,1.0,False,0
22.900000000000002,159.24191284179688,-13.03483772277832,0.04000150412321091,-0.14819461107254028,179.84487915039062,-0.0007934569730423391,-6.911732196807861,0.019510049372911453,-8.10488018032629e-06,0.0,-3.505063068587333e-05,1.0,False,0
23.0,158.62606811523438,-13.033069610595703,0.040300577878952026,-0.1838686764240265,179.8529052734375,-0.00115966796875,-5.624557971954346,0.015247234143316746,-6.979732461331878e-06,0.0,-5.901277108932845e-05,1.0,False,0
23.1,158.13848876953125,-13.031723022460938,0.03987787291407585,-0.1981847584247589,179.85935974121094,-0.0012817381648346782,-4.342750549316406,0.011304677464067936,-0.008574267849326134,0.0,-8.941292617237195e-05,1.0,False,0
23.200000000000003,157.7784881591797,-13.030757904052734,0.03957876190543175,-0.2032390981912613,179.86387634277344,-0.001220703125,-3.094918966293335,0.007876722142100334,-0.0008268884848803282,0.0,-0.00014353703591041267,1.0,False,0
23.3,157.53097534179688,-13.030101776123047,0.0395636186003685,-0.1926591396331787,179.86598205566406,-0.0010375975398346782,-2.012288808822632,0.005168348550796509,0.0013719750568270683,0.0,-0.00023885029077064246,1.0,False,3
23.400000000000002,157.39764404296875,-13.029642105102539,0.03967142105102539,-0.18807607889175415,179.87704467773438,-0.0007934568566270173,-0.8360111713409424,0.0020888878498226404,0.0013727378100156784,0.0,-0.000514117768034339,1.0,False,3
23.5,157.37986755371094,-13.02971363067627,0.0397210493683815,-0.18124589323997498,179.86766052246094,-0.0013732911320403218,0.0002530349011067301,5.813614620819862e-07,0.0008464164566248655,0.0,-0.000591734831687063,1.0,False,3
23.6,157.37950134277344,-13.029711723327637,0.039180658757686615,-0.11014362424612045,179.86766052246094,-0.0010375973070040345,0.0003773893404286355,-2.797582055791281e-05,0.0003998852916993201,0.0,-0.0004334871773608029,1.0,False,3
23.700000000000003,157.37921142578125,-13.029707908630371,0.03872087225317955,-0.052640266716480255,179.86766052246094,-0.0006103513878770173,0.0002492823114152998,-4.0004945844884787e-07,0.00013597129145637155,0.0,-0.0003694714396260679,1.0,False,3
23.8,157.3790283203125,-13.029705047607422,0.03846410661935806,-0.021364830434322357,179.86766052246094,-0.0003356933011673391,0.00012475378753151745,-1.6217221343595156e-07,2.0081031834706664e-05,0.0,-0.00037662399699911475,1.0,False,3
23.900000000000002,157.37893676757812,-13.029705047607422,0.03834604099392891,-0.007390264421701431,179.86766052246094,-0.00021362301777116954,5.213224358158186e-05,6.817213904497521e-09,-1.6896292436285876e-05,0.0,-0.00037662399699911475,1.0,False,3
24.0,157.37890625,-13.029704093933105,0.0382990837097168,-0.0020149056799709797,179.86766052246094,-0.00018310545419808477,1.850540684245061e-05,5.3010687395271816e-08,-1.9985682229162194e-05,0.0,-0.00037662399699911475,1.0,False,3
24.1,157.37890625,-13.029704093933105,0.038282908499240875,-0.00027320755179971457,179.86766052246094,-0.00018310545419808477,5.340846200851956e-06,1.90384974452229e-09,-1.2853387488576118e-05,0.0,-0.000378352589905262,1.0,False,3
24.200000000000003,157.37890625,-13.029704093933105,0.0382784828543663,0.000150264153489843,179.86766052246094,-0.00018310543964616954,9.701046792542911e-07,-4.2854662041236224e-08,-6.407623004633933e-06,0.0,-0.0003771604970097542,1.0,False,3
24.3,157.37890625,-13.029704093933105,0.0382784828543663,0.000150264153489843,179.86766052246094,-0.00018310543964616954,-1.124630557569617e-07,-3.443992824259112e-08,-2.631702500366373e-06,0.0,-0.0003771604970097542,1.0,False,3
24.400000000000002,157.37890625,-13.029704093933105,0.0382784828543663,0.000150264153489843,179.86766052246094,-0.00018310543964616954,-2.4781562046882755e-07,-3.0597359312878325e-08,-4.386170644465892e-07,0.0,-0.0003771604970097542,1.0,False,3
24.5,157.37890625,-13.029705047607422,0.038278788328170776,0.000150264153489843,179.86766052246094,-0.00018310543964616954,-1.7669670171471807e-07,-1.8014143066125143e-08,-5.530388875740755e-07,0.0,-0.0003771604970097542,1.0,False,3
24.6,157.37890625,-13.029705047607422,0.038278788328170776,0.000150264153489843,179.86766052246094,-0.00018310543964616954,-9.24609722119385e-08,1.33055539919269e-08,-1.907030799941367e-08,0.0,-0.0003771604970097542,1.0,False,3
24.700000000000003,157.37890625,-13.029705047607422,0.038278788328170776,0.000150264153489843,179.86766052246094,-0.00018310543964616954,-3.2349433354283974e-08,5.968778943321595e-11,4.386170644465892e-07,0.0,-0.0003771604970097542,1.0,False,3
24.8,157.37890625,-13.029705047607422,0.038278788328170776,0.000150264153489843,179.86766052246094,-0.00018310543964616954,-1.52173527112609e-08,-2.166028328920433e-10,1.1442184444376835e-07,0.0,-0.0003771604970097542,1.0,False,3
24.900000000000002,157.37890625,-13.029705047607422,0.038278788328170776,0.000150264153489843,179.86766052246094,-0.00018310543964616954,-1.864736143275536e-09,-2.966547146820986e-12,1.1442184444376835e-07,0.0,-0.0003771604970097542,1.0,False,0
