t,x,y,z,pitch,yaw,roll,vx,vy,vz,throttle,steer,brake,reverse,gear
0.0,25.530019760131836,105.54998779296875,0.5,0.0,-179.9996337890625,0.0,0.0,0.0,0.0,0.0,0.0,0.0,False,0
0.1,25.530019760131836,105.54998779296875,0.44285884499549866,0.0,-179.9996337890625,0.0,0.0,0.0,-0.9794285297393799,0.0,0.0,0.0,False,0
0.2,25.530019760131836,105.54998779296875,0.29933997988700867,0.0,-179.9996337890625,0.0,1.8301954396449105e-09,-5.294797915667004e-07,-1.3825318813323975,0.699999988079071,0.008888431824743748,0.0,False,0
0.30000000000000004,25.530019760131836,105.54998779296875,0.23049907386302948,0.0,-179.9996337890625,0.0,3.990591412872391e-09,-1.4385624069745973e-07,-0.31939470767974854,0.3218954801559448,0.002758996794000268,0.0,False,0
0.4,25.530019760131836,105.54998779296875,0.2245473861694336,0.0,-179.9996337890625,0.0,-4.7935739821980405e-09,-1.3578787161350192e-07,0.06117243692278862,0.699999988079071,0.0027593031991273165,0.0,False,0
0.5,25.530019760131836,105.54998779296875,0.23611655831336975,0.0,-179.9996337890625,0.0,4.085601190695343e-09,-1.1436184621516077e-07,0.12971539795398712,0.699999988079071,0.002759609604254365,0.0,False,0
0.6000000000000001,25.530019760131836,105.54998779296875,0.247465580701828,0.0,-179.9996337890625,0.0,1.3224061845562574e-08,-1.205892061761915e-07,0.09628242999315262,0.699999988079071,0.002759916242212057,0.0,False,0
0.7000000000000001,25.530019760131836,105.54998779296875,0.2543843686580658,0.0,-179.9996337890625,0.0,4.11718170667541e-09,2.5916828683136828e-09,0.05105407163500786,0.699999988079071,0.0027602226473391056,0.0,False,0
0.8,25.530019760131836,105.54998779296875,0.25756222009658813,0.0,-179.9996337890625,0.0,-7.590212014463305e-09,7.465645524007414e-08,0.020414935424923897,0.699999988079071,0.002760529052466154,0.0,False,0
0.9,25.530019760131836,105.54998779296875,0.25860878825187683,0.0,-179.9996337890625,0.0,-8.752868652095458e-09,-1.1853870107714215e-09,0.005123371258378029,0.699999988079071,0.0027608356904238462,0.0,False,0
1.0,25.530019760131836,105.54998779296875,0.258735716342926,0.0,-179.9996337890625,0.0,-8.112193583542648e-09,-1.906311730692778e-08,-0.0005546407774090767,0.699999988079071,0.0027611420955508947,0.0,False,0
1.1,25.530019760131836,105.54998779296875,0.2585911154747009,0.0,-179.9996337890625,0.0,-7.429608039899449e-09,-3.834021811144339e-08,-0.0017153359949588776,0.699999988079071,0.002761448733508587,0.0,False,0
1.2000000000000002,25.530019760131836,105.54998779296875,0.2584364712238312,0.0,-179.9996337890625,0.0,3.048677976735803e-09,-1.821268114099439e-08,-0.001334749860689044,0.699999988079071,0.0027617551386356354,0.0,False,0
1.3,25.530019760131836,105.54998779296875,0.2583390772342682,0.0,-179.9996337890625,0.0,3.145026461481848e-09,-1.1085758977458227e-08,-0.0007279707933776081,0.699999988079071,0.002762061543762684,0.0,False,0
1.4000000000000001,25.530019760131836,105.54998779296875,0.25829312205314636,0.0,-179.9996337890625,0.0,-7.813951263813124e-09,1.2291724971191798e-08,-0.00030125363264232874,0.699999988079071,0.002762368181720376,0.0,False,0
1.5,25.530019760131836,105.54998779296875,0.2582772672176361,0.0,-179.9996337890625,0.0,2.1835646624168703e-09,-3.4726825859365817e-09,-8.059111860347912e-05,0.699999988079071,0.0027626745868474245,0.0,False,0
1.6,25.530019760131836,105.54998779296875,0.2582748830318451,0.0,-179.9996337890625,0.0,2.4848445523417695e-09,-1.391979309595115e-09,3.5089365155727137e-06,0.699999988079071,0.002762980991974473,0.0,False,0
1.7000000000000002,25.530019760131836,105.54998779296875,0.25827667117118835,0.0,-179.9996337890625,0.0,1.9259178696273693e-09,-8.403749363061763e-10,2.3075072022038512e-05,0.699999988079071,0.002763287629932165,0.0,False,0
1.8,25.530019760131836,105.54998779296875,0.2582787573337555,0.0,-179.9996337890625,0.0,2.3599355802872424e-09,-1.6255626011929536e-10,1.8917744455393404e-05,0.699999988079071,0.0027635940350592136,0.0,False,0
1.9000000000000001,25.530019760131836,105.54998779296875,0.2582801282405853,0.0,-179.9996337890625,0.0,1.4680935356281566e-09,5.358261057075708e-10,1.0050051969301421e-05,0.699999988079071,0.002763900440186262,0.0,False,0
2.0,25.530019760131836,105.54998779296875,0.2582801282405853,0.0,-179.9996337890625,0.0,6.096788629506023e-10,-9.951273138852912e-10,4.233608251524856e-06,0.699999988079071,0.0027642070781439543,0.0,False,0
2.1,25.530019760131836,105.54998779296875,0.2582801282405853,0.0,-179.9996337890625,0.0,1.4843245521589665e-09,-2.455670389256426e-10,1.7163276879728073e-06,0.699999988079071,0.0027645134832710028,0.0,False,0
2.2,25.530019760131836,105.54998779296875,0.2582801282405853,0.0,-179.9996337890625,0.0,-7.311291128075936e-09,1.3042669166907217e-08,4.576873777750734e-07,0.699999988079071,0.0027648198883980513,0.0,False,0
2.3000000000000003,25.530019760131836,105.54998779296875,0.2582801282405853,0.0,-179.9996337890625,0.0,-6.412435915592596e-09,1.2992739328865355e-08,1.1442184444376835e-07,0.699999988079071,0.0027651265263557434,0.0,False,0
2.4000000000000004,25.530019760131836,105.54998779296875,0.2582801282405853,0.0,-179.9996337890625,0.0,4.086270433134587e-09,-1.7532170160095006e-09,-3.432655262258777e-07,0.699999988079071,0.002765432931482792,0.0,False,0
2.5,25.530019760131836,105.54998779296875,0.2582801282405853,0.0,-179.9996337890625,0.0,5.387815971147347e-09,-1.1392633503248817e-08,-5.911795142310439e-07,0.699999988079071,0.0027657393366098404,0.0,False,0
2.6,25.500566482543945,105.54991912841797,0.25800585746765137,0.03268928453326225,-179.99781799316406,-0.00027465817402116954,-0.6933027505874634,-0.0017473873449489474,-8.200231604860164e-07,0.699999988079071,0.0027660459745675325,0.0,False,0
2.7,25.376047134399414,105.54967498779297,0.25751373171806335,0.09134694188833237,-179.98959350585938,-0.0006408690824173391,-1.6137049198150635,-0.004114539362490177,-4.424311100592604e-06,0.699999988079071,0.002766352379694581,0.0,False,1
2.8000000000000003,25.167943954467773,105.54922485351562,0.25728046894073486,0.11910483241081238,-179.9749755859375,-0.0008850095910020173,-2.39274263381958,-0.006831544451415539,-3.2038115023169667e-06,0.699999988079071,0.0029256895650178194,0.0,False,1
2.9000000000000004,24.89107322692871,105.54869842529297,0.25727909803390503,0.11924143880605698,-179.9615936279297,-0.0003662108792923391,-3.007807970046997,-0.006804774049669504,-1.0488669204278267e-06,0.1979987621307373,0.001965860603377223,0.0,False,1
3.0,24.566303253173828,105.54790496826172,0.2574419379234314,0.09981638193130493,-179.94024658203125,-0.0009460447472520173,-3.3862905502319336,-0.01096782274544239,1.106077775148151e-06,0.1250627040863037,0.0028499711770564318,0.0,False,1
3.1,24.217435836791992,105.54763793945312,0.2576974332332611,0.06937422603368759,-179.9459228515625,0.001850911183282733,-3.537360668182373,-0.0005892099579796195,3.2991633815981913e-06,0.13931173086166382,-0.0011542261345312,0.0,False,1
3.2,23.862140655517578,105.54730987548828,0.2579527199268341,0.03899354860186577,-179.94613647460938,0.0011141630820930004,-3.560356616973877,-0.003660268150269985,2.4028588541114004e-06,0.33419209718704224,0.00016106723342090845,0.0,False,1
3.3000000000000003,23.505128860473633,105.54685974121094,0.2581159472465515,0.019548000767827034,-179.9417266845703,0.00010396553261671215,-3.5888760089874268,-0.005123630166053772,2.0786635559488786e-06,0.5945175290107727,0.0005702933995053172,0.0,False,1
3.4000000000000004,23.14068031311035,105.54633331298828,0.2581561207771301,0.014773698523640633,-179.93634033203125,-0.0003051757230423391,-3.6957600116729736,-0.00588535750284791,-1.620976036065258e-06,0.699999988079071,0.0006427442422136664,0.0,False,1
3.5,22.761754989624023,105.54573822021484,0.2581198811531067,0.019104037433862686,-179.93016052246094,-0.0004272460355423391,-3.8613510131835938,-0.006800276692956686,-1.907030799941367e-08,0.699999988079071,0.000720973068382591,0.0,False,1
3.6,22.365020751953125,105.54512786865234,0.25807100534439087,0.024923358112573624,-179.9268035888672,-6.103515261202119e-05,-4.0409417152404785,-0.006251665763556957,-3.814061599882734e-08,0.6013506650924683,0.00034088618122041225,0.0,False,1
3.7,21.95193862915039,105.5445556640625,0.2580539286136627,0.026958754286170006,-179.9253692626953,0.00020499544916674495,-4.1870222091674805,-0.00597255676984787,-5.339686026673007e-07,0.4642319083213806,0.0001554508926346898,0.0,False,1
3.8000000000000003,21.527748107910156,105.54398345947266,0.2580825090408325,0.02354366146028042,-179.92425537109375,0.0002203464973717928,-4.272172927856445,-0.006065831519663334,-1.2967809652764117e-06,0.38361597061157227,0.00013236599625088274,0.0,False,1
3.9000000000000004,21.098434448242188,105.54335021972656,0.25814104080200195,0.016563206911087036,-179.9225616455078,8.617357525508851e-05,-4.302844047546387,-0.006379462778568268,1.3349215066682518e-07,0.37962865829467773,0.00018461447325535119,0.0,False,1
4.0,20.667724609375,105.542724609375,0.2581990361213684,0.009651056490838528,-179.9209747314453,1.4953277059248649e-05,-4.3101325035095215,-0.0064172688871622086,9.916559520206647e-07,0.43412792682647705,0.00015180124319158494,0.0,False,1
4.1000000000000005,20.23638343811035,105.54208374023438,0.2582363188266754,0.005225094500929117,-179.9197540283203,2.858601646948955e-06,-4.312863826751709,-0.006398461293429136,4.386170644465892e-07,0.49845731258392334,0.00011427384743001312,0.0,False,1
4.2,19.80554962158203,105.54144287109375,0.25826144218444824,0.002226641634479165,-179.91873168945312,0.0,-4.305383682250977,-0.006396737415343523,5.530388875740755e-07,0.5281571745872498,9.366977610625327e-05,0.0,False,0
4.3,19.37545394897461,105.54080963134766,0.2582748234272003,0.0006352075724862516,-179.91763305664062,-3.0517578125e-05,-4.297918319702148,-0.006493919529020786,2.6698430133365036e-07,0.5336009860038757,0.00010411703260615468,0.0,False,0
4.4,18.946102142333984,105.54017639160156,0.25828078389167786,-6.147169915493578e-05,-179.91668701171875,-3.051757266803179e-05,-4.290468215942383,-0.006521876435726881,7.05601394201949e-07,0.5503007769584656,9.209108247887343e-05,0.0,False,0
4.5,18.517492294311523,105.53953552246094,0.2582831382751465,-0.00033467926550656557,-179.91590881347656,0.0,-4.2830328941345215,-0.0065009212121367455,-2.8414758617145708e-06,0.5529719591140747,6.998962635407224e-05,0.0,False,0
4.6000000000000005,18.085107803344727,105.53889465332031,0.2582351565361023,0.005375358741730452,-179.91563415527344,2.3284077542484738e-05,-4.416134357452393,-0.006673845928162336,2.2884369172970764e-06,0.5556373000144958,5.080652772448957e-05,0.0,False,0
4.7,17.6280517578125,105.53820037841797,0.25808966159820557,0.022703547030687332,-179.91590881347656,8.79623694345355e-05,-4.67088508605957,-0.007023213431239128,-1.5256244978445466e-06,0.5582991242408752,4.598641680786386e-05,0.0,False,2
4.800000000000001,17.149911880493164,105.53749084472656,0.25802505016326904,0.030401170253753662,-179.9166259765625,0.0002072355564450845,-4.844165802001953,-0.006997289601713419,-3.0512492799061874e-07,0.3200490474700928,-2.1422085410449654e-05,0.0,False,2
4.9,16.661611557006836,105.53678131103516,0.258070170879364,0.025012152269482613,-179.91700744628906,0.00020921761461067945,-4.890547752380371,-0.007042842451483011,-8.390935590796289e-07,0.06597292423248291,-9.856459655566141e-06,0.0,False,2
5.0,16.17536163330078,105.53607940673828,0.2582872807979584,0.016870565712451935,-179.9169464111328,0.00012934752157889307,-4.835284233093262,-0.006960805039852858,0.0025118645280599594,0.11837738752365112,-7.352053216891363e-06,0.0,False,2
5.1000000000000005,15.696271896362305,105.5353775024414,0.2584911286830902,0.008640188723802567,-179.91677856445312,5.050533218309283e-05,-4.763251304626465,-0.006889293435961008,0.0007107694400474429,0.276588499546051,-1.8681266737985425e-06,0.0,False,2
5.2,15.222208976745605,105.53467559814453,0.2585502862930298,0.004371320828795433,-179.91659545898438,2.533720362407621e-07,-4.733868598937988,-0.006889271084219217,8.390935590796289e-07,0.4350200593471527,5.52290839550551e-06,0.0,False,2
5.300000000000001,14.747642517089844,105.53397369384766,0.2585194706916809,0.006543321069329977,-179.91659545898438,0.0,-4.760523796081543,-0.00693397456780076,-0.000171499268617481,0.4828092157840729,5.105556738271844e-06,0.0,False,2
5.4,14.268549919128418,105.53327178955078,0.2584628164768219,0.01133811380714178,-179.91664123535156,1.8060083675663918e-05,-4.813162326812744,-0.007025925442576408,-0.00014787116379011422,0.4344845414161682,1.0410311006125994e-05,0.0,False,2
5.5,13.784502983093262,105.53256225585938,0.25842562317848206,0.014459509402513504,-179.91680908203125,5.7195320550817996e-05,-4.856186866760254,-0.007031639106571674,-8.49963616929017e-05,0.3485856056213379,-2.8820013540098444e-06,0.0,False,2
5.6000000000000005,13.29777717590332,105.5318603515625,0.2585717737674713,0.007041924633085728,-179.9170379638672,9.177504398394376e-05,-4.8716559410095215,-0.006988543085753918,0.0006968671805225313,0.2949903905391693,-1.5280958905350417e-05,0.0,False,2
5.7,12.810918807983398,105.53115844726562,0.2586418390274048,0.0027252454310655594,-179.91732788085938,8.775478636380285e-05,-4.864680767059326,-0.006909345276653767,0.00014972097415011376,0.2935083508491516,-2.690595283638686e-05,0.0,False,2
5.800000000000001,12.325212478637695,105.53044891357422,0.25866302847862244,0.0004371320828795433,-179.91770935058594,7.9048186307773e-05,-4.852291584014893,-0.006824847310781479,-4.0276489016832784e-05,0.32607752084732056,-3.6684152291854843e-05,0.0,False,2
5.9,11.840330123901367,105.52978515625,0.258661687374115,-0.00018441509746480733,-179.91835021972656,8.999751298688352e-05,-4.8481292724609375,-0.00668533006682992,-7.057921175146475e-05,0.3593336045742035,-6.0828562709502876e-05,0.0,False,2
6.0,11.35519027709961,105.52912902832031,0.2586497366428375,0.0005190943484194577,-179.91920471191406,0.00010600047244224697,-4.855052947998047,-0.006561405025422573,-5.057445741840638e-05,0.37108951807022095,-7.77028180891648e-05,0.0,False,2
6.1000000000000005,10.868971824645996,105.52847290039062,0.25863662362098694,0.0016529057174921036,-179.9203338623047,0.00012742221588268876,-4.867369174957275,-0.006414771545678377,-2.667935950739775e-05,0.36131858825683594,-9.738028165884316e-05,0.0,False,2
6.2,10.381587982177734,105.52781677246094,0.25862905383110046,0.0023632452357560396,-179.9216766357422,0.0001462204527342692,-4.877674579620361,-0.006251640152186155,-1.0164474588236772e-05,0.3438257873058319,-0.0001152118420577608,0.0,False,2
6.300000000000001,9.893503189086914,105.52720642089844,0.2586287558078766,0.002335924655199051,-179.92333984375,0.00017387300613336265,-4.882216453552246,-0.006013078615069389,-2.5935619305528235e-06,0.33228978514671326,-0.0001456819154554978,0.0,False,2
6.4,9.405269622802734,105.526611328125,0.2586330473423004,0.0018236604519188404,-179.92523193359375,0.00018706479750107974,-4.882002830505371,-0.005782789550721645,-2.8605461466213455e-07,0.33159685134887695,-0.00016488897381350398,0.0,False,2
6.5,8.917165756225586,105.52603149414062,0.2586374878883362,0.0012909056385979056,-179.9274139404297,0.00020806441898457706,-4.880476474761963,-0.005481269210577011,3.8140612446113664e-07,0.3380248546600342,-0.00019739056006073952,0.0,False,2
6.6000000000000005,8.429140090942383,105.5255355834961,0.2586396634578705,0.0010450189001858234,-179.9322052001953,0.00045943050645291805,-4.880456447601318,-0.004211053252220154,4.576873777750734e-07,0.34470221400260925,-0.0004618247621692717,0.0,False,2
6.7,7.940986156463623,105.525390625,0.25863930583000183,0.0010996604105457664,-179.9493865966797,0.0017302223714068532,-4.882588863372803,0.0014259291347116232,1.7163276311293885e-07,0.3471076786518097,-0.001732555916532874,0.0,False,2
6.800000000000001,7.452547550201416,105.52620697021484,0.25863781571388245,0.0012840754352509975,-179.99871826171875,0.004989572800695896,-4.885707378387451,0.01611490361392498,-1.9070306223056832e-07,0.3451313376426697,-0.004886521026492119,0.0,False,2
6.9,6.963852882385254,105.52974700927734,0.25863686203956604,0.001379698165692389,179.86082458496094,0.014147344045341015,-4.88782262802124,0.05811663344502449,4.576873777750734e-07,0.3415318429470062,-0.013975315727293491,0.0,False,2
7.0,6.47514533996582,105.53868103027344,0.25863784551620483,0.0012704151449725032,179.55584716796875,0.030308905988931656,-4.886771202087402,0.13644041121006012,1.163288743555313e-06,0.3391430377960205,-0.02969684824347496,0.0,False,2
7.1000000000000005,5.986885070800781,105.55631256103516,0.2586410939693451,0.0009152452694252133,179.01502990722656,0.05239957943558693,-4.880195617675781,0.2560105621814728,-3.432655262258777e-07,0.339364618062973,-0.051814161241054535,0.0,False,2
7.2,5.499704360961914,105.58572387695312,0.2585035264492035,-0.006406717002391815,178.19918823242188,0.0775553360581398,-4.8665666580200195,0.4089280366897583,-0.0019382679602131248,0.3419141471385956,-0.07698674499988556,0.0,False,2
7.300000000000001,5.0140767097473145,105.62892150878906,0.25842997431755066,-0.009248076006770134,177.12277221679688,0.09601590782403946,-4.846624851226807,0.5765818953514099,-0.0004615967918653041,0.34572452306747437,-0.0999680832028389,0.0,False,2
7.4,4.529473781585693,105.6830062866211,0.25841861963272095,-0.00906366016715765,175.9958038330078,0.0911661759018898,-4.836167812347412,0.6763768792152405,7.513700984418392e-05,0.34884536266326904,-0.09959370642900467,0.0,False,2
7.5,4.0468316078186035,105.7510986328125,0.25843319296836853,-0.008940717205405235,174.68614196777344,0.09996622055768967,-4.8085150718688965,0.8501905798912048,0.00017247186042368412,0.34955352544784546,-0.1204262524843216,0.0,False,2
7.6000000000000005,3.5674543380737305,105.83650970458984,0.2584516704082489,-0.009302716702222824,173.1283721923828,0.11787031590938568,-4.765254020690918,1.0538599491119385,0.00013122278323862702,0.3414599299430847,-0.14389266073703766,0.0,False,2
7.7,3.09194016456604,105.93927764892578,0.2584257125854492,-0.007724943570792675,171.4060821533203,0.1298685520887375,-4.718536853790283,1.2390860319137573,-0.000550159253180027,0.34512045979499817,-0.15687993168830872,0.0,False,2
7.800000000000001,2.6179778575897217,106.05216217041016,0.2582854926586151,-0.0006147170206531882,169.87481689453125,0.09972820430994034,-4.7103495597839355,1.2949817180633545,-0.00046617366024293005,0.3496427536010742,-0.13121281564235687,0.0,False,2
7.9,2.1454951763153076,106.17418670654297,0.2582533061504364,0.0008674339624121785,168.4822540283203,0.07778362929821014,-4.693355083465576,1.3767443895339966,-5.887003862881102e-05,0.34924080967903137,-0.12127186357975006,0.0,False,2
8.0,1.677427887916565,106.31133270263672,0.25826361775398254,-3.415094397496432e-05,166.9192352294922,0.09414870291948318,-4.630958557128906,1.5653133392333984,5.7763958466239274e-05,0.33542999625205994,-0.14369212090969086,0.0,False,2
8.1,1.215907096862793,106.46636199951172,0.25828224420547485,-0.001434339676052332,165.1380157470703,0.11865101009607315,-4.550463676452637,1.7665036916732788,6.157802272355184e-05,0.3342801332473755,-0.16373102366924286,0.0,False,2
8.200000000000001,0.7586321830749512,106.63372802734375,0.2582870125770569,-0.0014070188626646996,163.46022033691406,0.10696148872375488,-4.5165228843688965,1.8559370040893555,4.203095886623487e-05,0.3473242521286011,-0.14643284678459167,0.0,False,2
8.3,0.30917882919311523,106.81889343261719,0.2582985758781433,-0.0024110565427690744,161.56365966796875,0.12574046850204468,-4.410876750946045,2.0817413330078125,2.057686106127221e-05,0.35567569732666016,-0.17651809751987457,0.0,False,2
8.4,-0.13280895352363586,107.02108001708984,0.25829994678497314,-0.0024452076759189367,159.58616638183594,0.13130134344100952,-4.332993507385254,2.2433922290802,6.007147021591663e-06,0.34326088428497314,-0.1782161295413971,0.0,False,2
8.5,-0.5686683654785156,107.23727416992188,0.2582961618900299,-0.0019534339662641287,157.67288208007812,0.12047639489173889,-4.272021770477295,2.368295907974243,2.631702500366373e-06,0.35510632395744324,-0.16983562707901,0.0,False,2
8.6,-0.9977194666862488,107.46768951416016,0.2582942545413971,-0.0017416981281712651,155.77294921875,0.11506358534097672,-4.194879531860352,2.509838581085205,-1.9070306223056832e-07,0.34440919756889343,-0.1701466143131256,0.0,False,2
8.700000000000001,-1.416772723197937,107.71504974365234,0.2583000361919403,-0.0024452076759189367,153.72894287109375,0.1284051537513733,-4.0716962814331055,2.6983730792999268,-1.163288743555313e-06,0.3380272686481476,-0.1872585564851761,0.0,False,2
8.8,-1.8173223733901978,107.98611450195312,0.2583272457122803,-0.005648565944284201,151.18519592285156,0.18031084537506104,-3.8199782371520996,3.0049171447753906,-9.287239663535729e-06,0.33877772092819214,-0.2476915568113327,0.0,False,2
8.9,-2.205462694168091,108.27442169189453,0.2583219110965729,-0.005095320753753185,148.705810546875,0.1685618758201599,-3.731008529663086,3.1218252182006836,5.721092293242691e-07,0.35047394037246704,-0.220537930727005,0.0,False,2
9.0,-2.59009051322937,108.57101440429688,0.2582988440990448,-0.0023837359622120857,146.70889282226562,0.10934281349182129,-3.7377238273620605,3.1428301334381104,8.524427357770037e-06,0.3873508870601654,-0.1688874512910843,0.0,False,2
9.1,-2.9679479598999023,108.87906646728516,0.25828787684440613,-0.0010381886968389153,144.81922912597656,0.09329525381326675,-3.6504411697387695,3.2636587619781494,3.7377801618276862e-06,0.3460789918899536,-0.1685035228729248,0.0,False,2
9.200000000000001,-3.32088565826416,109.20983123779297,0.25832951068878174,-0.00586030213162303,142.1964111328125,0.1788225769996643,-3.2489373683929443,3.6083171367645264,-1.1175199688295834e-05,0.3204689621925354,-0.27728426456451416,0.0,False,2
9.3,-3.636914014816284,109.56700897216797,0.258379191160202,-0.0118093965575099,138.7557830810547,0.2626788020133972,-2.8290419578552246,3.891888380050659,-2.3437407435267232e-05,0.3234668970108032,-0.3399903178215027,0.0,False,2
9.4,-3.9434654712677,109.93523406982422,0.25833776593208313,-0.007110226433724165,135.97744750976562,0.1818884015083313,-2.890779972076416,3.881185293197632,1.3349215805646963e-05,0.4122750759124756,-0.23153194785118103,0.0,False,2
9.5,-4.2597761154174805,110.30268096923828,0.2582800090312958,-0.00021856604143977165,134.3924102783203,0.03840500861406326,-3.111118793487549,3.760241985321045,1.9013095879927278e-05,0.4312956929206848,-0.1103874146938324,0.0,False,2
9.600000000000001,-4.56856632232666,110.68047332763672,0.2582660913467407,0.0015982642071321607,132.732177734375,0.04888143390417099,-2.9265944957733154,3.930006980895996,6.674607902823482e-06,0.32309985160827637,-0.1565854400396347,0.0,False,2
9.700000000000001,-4.844126224517822,111.07722473144531,0.25832399725914,-0.00515679270029068,130.08399963378906,0.17958460748195648,-2.3647754192352295,4.221858501434326,-1.5637651813449338e-05,0.2912973463535309,-0.30437156558036804,0.0,False,2
9.8,-5.072535991668701,111.49279022216797,0.2583862543106079,-0.012608528137207031,126.46900177001953,0.2827129364013672,-1.8790383338928223,4.403573989868164,-2.9349203032325022e-05,0.31401753425598145,-0.3562908172607422,0.0,False,2
9.9,-5.285727500915527,111.9181900024414,0.2583511769771576,-0.008728981018066406,123.42398071289062,0.21297961473464966,-1.8744468688964844,4.434021472930908,9.24909909372218e-06,0.445443719625473,-0.26515063643455505,0.0,False,2
10.0,-5.515045166015625,112.34204864501953,0.25828132033348083,-0.0003961509501095861,121.97919464111328,0.013479202054440975,-2.3229241371154785,4.259558200836182,2.6774710931931622e-05,0.449904203414917,-0.06364600360393524,0.0,False,2
10.100000000000001,-5.737909317016602,112.77305603027344,0.25826525688171387,0.0016938868211582303,120.46223449707031,0.0327664278447628,-2.000885009765625,4.441446304321289,6.884381036798004e-06,0.3346518278121948,-0.16622662544250488,0.0,False,2
10.200000000000001,-5.9248576164245605,113.21760559082031,0.25830090045928955,-0.0024110565427690744,117.9406967163086,0.15910546481609344,-1.5160537958145142,4.600119113922119,-1.4588785234082025e-05,0.3058449327945709,-0.2625083327293396,0.0,False,2
10.3,-6.079774856567383,113.67156219482422,0.2583220303058624,-0.005033849272876978,115.02850341796875,0.2125660479068756,-1.2194571495056152,4.675531387329102,-1.4150167771731503e-05,0.3242879807949066,-0.27169305086135864,0.0,False,2
10.4,-6.233386516571045,114.12890625,0.25829067826271057,-0.0014684905763715506,113.04814910888672,0.10738398134708405,-1.4055660963058472,4.645769119262695,1.2796176633855794e-05,0.39892399311065674,-0.1483892947435379,0.0,False,2
10.5,-6.399621486663818,114.58565521240234,0.25826290249824524,0.001912452862598002,112.14642333984375,-0.013610838912427425,-1.6257805824279785,4.59751033782959,1.0545880286372267e-05,0.38064485788345337,-0.05952294170856476,0.0,False,2
10.600000000000001,-6.5550994873046875,115.04753875732422,0.2582625150680542,0.0020217359997332096,110.9864730834961,0.02295367233455181,-1.3921974897384644,4.680622100830078,1.220499711962475e-06,0.32750949263572693,-0.11542904376983643,0.0,False,2
10.700000000000001,-6.679283142089844,115.515380859375,0.2582990229129791,-0.0022607925347983837,108.94725036621094,0.14116649329662323,-0.9122214317321777,4.761789321899414,-1.1766379429900553e-05,0.3184637427330017,-0.22078721225261688,0.0,False,2
10.8,-6.776191711425781,115.98741149902344,0.25831103324890137,-0.0037566039245575666,106.5888442993164,0.18068581819534302,-0.6950117349624634,4.792170524597168,-9.7639976956998e-06,0.3381383717060089,-0.21516042947769165,0.0,False,2
10.9,-6.874089241027832,116.46139526367188,0.25828471779823303,-0.0007308301865123212,105.08164978027344,0.08290060609579086,-0.8754670023918152,4.7813334465026855,1.401667577738408e-05,0.4073525369167328,-0.11110790073871613,0.0,False,2
11.0,-6.980142116546631,116.93687438964844,0.2582615911960602,0.0021378491073846817,104.32878112792969,-0.005554198753088713,-1.0154954195022583,4.778132438659668,9.935629350366071e-06,0.36998164653778076,-0.0533139705657959,0.0,False,2
11.100000000000001,-7.075213432312012,117.4159164428711,0.2582608461380005,0.0023017735220491886,103.3104476928711,0.028690097853541374,-0.8071845769882202,4.824990749359131,3.051248995689093e-06,0.32999831438064575,-0.09886819124221802,0.0,False,2
11.200000000000001,-7.146731853485107,117.8974838256836,0.25828105211257935,-9.56226431299001e-05,101.69892883300781,0.10862817615270615,-0.4792315661907196,4.852347373962402,-6.6173965933558065e-06,0.3142772614955902,-0.16015291213989258,0.0,False,2
11.3,-7.20353889465332,118.38046264648438,0.2582862675189972,-0.0007308301865123212,100.09717559814453,0.11429235339164734,-0.38899168372154236,4.857987403869629,-4.119186542084208e-06,0.33498600125312805,-0.13940218091011047,0.0,False,2
11.4,-7.262955665588379,118.86392974853516,0.25827711820602417,0.00029369810363277793,99.1495361328125,0.041006848216056824,-0.5276460647583008,4.850683689117432,6.522044714074582e-06,0.37250828742980957,-0.06868451833724976,0.0,False,2
11.5,-7.325568675994873,119.34832763671875,0.2582683563232422,0.0013933584559708834,98.60291290283203,-0.004516600631177425,-0.5816560387611389,4.855650424957275,4.672225259128027e-06,0.35467448830604553,-0.04176837205886841,0.0,False,2
11.600000000000001,-7.379221439361572,119.83432006835938,0.25826793909072876,0.0014684905763715506,97.84587097167969,0.02513822726905346,-0.42944180965423584,4.875199317932129,-1.6019057511584833e-06,0.3415625989437103,-0.07242661714553833,0.0,False,2
11.700000000000001,-7.419102191925049,120.32142639160156,0.258273184299469,0.0008742641657590866,96.80432891845703,0.06692616641521454,-0.25910234451293945,4.8848371505737305,-2.479139880051662e-07,0.3305717706680298,-0.09700510650873184,0.0,False,2
11.8,-7.452284812927246,120.80913543701172,0.2582736909389496,0.000778641551733017,95.87141418457031,0.06070394814014435,-0.23135577142238617,4.887077331542969,-4.1382568269909825e-06,0.33946654200553894,-0.07834696769714355,0.0,False,2
11.9,-7.485687255859375,121.29718780517578,0.2582719027996063,0.0009835471864789724,95.2620620727539,0.025072820484638214,-0.28194770216941833,4.886923313140869,8.200231604860164e-07,0.34870588779449463,-0.046602822840213776,0.0,False,2
12.0,-7.5179762840271,121.78572082519531,0.2582705616950989,0.0011611321242526174,94.79393768310547,0.009984535165131092,-0.27330783009529114,4.890686511993408,1.3730621049035108e-06,0.3440815508365631,-0.038941457867622375,0.0,False,2
12.100000000000001,-7.544748306274414,122.27474975585938,0.25827082991600037,0.0011201510205864906,94.25277709960938,0.02242015115916729,-0.19763493537902832,4.895602703094482,-1.2014294270557002e-06,0.34103772044181824,-0.04905634745955467,0.0,False,2
12.200000000000001,-7.565516948699951,122.76414489746094,0.2582716643810272,0.0010313584934920073,93.65995788574219,0.03373521938920021,-0.1348971426486969,4.8982038497924805,-1.163288743555313e-06,0.33894479274749756,-0.05231862887740135,0.0,False,2
12.3,-7.583048343658447,123.25376892089844,0.2582717537879944,0.0010245282901450992,93.14466094970703,0.028522558510303497,-0.11960261315107346,4.899427890777588,-6.674607675449806e-07,0.3413231074810028,-0.04292643070220947,0.0,False,2
12.4,-7.5995635986328125,123.74358367919922,0.25827133655548096,0.001072339597158134,92.76131439208984,0.01537427306175232,-0.1274210512638092,4.900372505187988,9.916559520206647e-07,0.34234240651130676,-0.030723068863153458,0.0,False,2
12.5,-7.614047527313232,124.23357391357422,0.2582712173461914,0.0010860000038519502,92.41875457763672,0.012403714470565319,-0.10543954372406006,4.9018940925598145,-7.628122489222733e-07,0.3416510820388794,-0.029278788715600967,0.0,False,2
12.600000000000001,-7.625480651855469,124.72371673583984,0.25827133655548096,0.001072339597158134,92.06824493408203,0.016079403460025787,-0.07193933427333832,4.9031500816345215,3.814061599882734e-08,0.3409079909324646,-0.030583370476961136,0.0,False,2
12.700000000000001,-7.634278297424316,125.2139892578125,0.25827136635780334,0.0010655093938112259,91.73268127441406,0.017216408625245094,-0.049193914979696274,4.903989315032959,2.0977338976990723e-07,0.3408393859863281,-0.02865016460418701,0.0,False,2
12.8,-7.640757083892822,125.70435333251953,0.2582715153694153,0.0010586793068796396,91.41829681396484,0.016587261110544205,-0.028503738343715668,4.904646396636963,-1.7163276311293885e-07,0.34117648005485535,-0.026802752166986465,0.0,False,2
12.9,-7.645805358886719,126.1948013305664,0.25827139616012573,0.001072339597158134,91.15363311767578,0.012384851463139057,-0.022092724218964577,4.905272483825684,-4.576873777750734e-07,0.3411894738674164,-0.02186286821961403,0.0,False,2
13.0,-7.649605751037598,126.6853256225586,0.25827136635780334,0.001079169800505042,90.92655944824219,0.009406656958162785,-0.012920213863253593,4.905855178833008,1.1442184444376835e-07,0.34118878841400146,-0.018992170691490173,0.0,False,2
13.100000000000001,-7.652002334594727,127.17591857910156,0.25827133655548096,0.001079169800505042,90.71867370605469,0.00874150637537241,-0.00018286083650309592,4.9063286781311035,4.0047643778962083e-07,0.3409283459186554,-0.017640331760048866,0.0,False,2
13.200000000000001,-7.6530375480651855,127.66655731201172,0.25827139616012573,0.001079169800505042,90.52626037597656,0.008624259382486343,0.01166059821844101,4.906686305999756,-9.535153111528416e-08,0.34087881445884705,-0.016311554238200188,0.0,False,2
13.3,-7.6529221534729,128.1572265625,0.25827136635780334,0.001079169800505042,90.35282135009766,0.007922369055449963,0.02067905105650425,4.906992435455322,-6.483904826382059e-07,0.34092995524406433,-0.014592140913009644,0.0,False,2
13.4,-7.651838302612305,128.64794921875,0.25827136635780334,0.001079169800505042,90.19894409179688,0.0068905348889529705,0.028049655258655548,4.907285213470459,-5.14898317760526e-07,0.3409985303878784,-0.012904996052384377,0.0,False,2
13.5,-7.649888038635254,129.13868713378906,0.25827136635780334,0.001079169800505042,90.06199645996094,0.006009051576256752,0.03486591950058937,4.907570838928223,-2.0977338976990723e-07,0.34101182222366333,-0.011498749256134033,0.0,False,2
13.600000000000001,-7.647151947021484,129.6294708251953,0.25827133655548096,0.001079169800505042,89.93949890136719,0.005338496994227171,0.041137371212244034,4.90784215927124,2.479139880051662e-07,0.3409866690635681,-0.01029170397669077,0.0,False,2
13.700000000000001,-7.643715858459473,130.12025451660156,0.2582712769508362,0.001079169800505042,89.8301010131836,0.004756537731736898,0.04664987325668335,4.908094882965088,9.916559520206647e-07,0.34095317125320435,-0.009182785637676716,0.0,False,2
13.8,-7.639341354370117,130.611083984375,0.2582714259624481,0.001079169800505042,89.71965789794922,0.005575929302722216,0.05711936205625534,4.908244609832764,3.8140612446113664e-07,0.3409365117549896,-0.009569309651851654,0.0,False,2
13.9,-7.634459495544434,131.10194396972656,0.2582714855670929,0.001079169800505042,89.62718200683594,0.004298592451959848,0.05856243520975113,4.908499717712402,-1.0679372053346015e-06,0.34093576669692993,-0.007550709880888462,0.0,False,2
14.0,-7.629214763641357,131.59280395507812,0.25827133655548096,0.001079169800505042,89.55076599121094,0.0030297657940536737,0.060701414942741394,4.9087371826171875,-7.628123199765469e-08,0.3409833312034607,-0.006309574469923973,0.0,False,2
14.100000000000001,-7.623575210571289,132.08370971679688,0.25827139616012573,0.001079169800505042,89.48377227783203,0.0025234296917915344,0.06387036293745041,4.908952713012695,-1.3349215066682518e-07,0.34095364809036255,-0.005607861094176769,0.0,False,2
14.200000000000001,-7.617559432983398,132.57460021972656,0.25827139616012573,0.001079169800505042,89.42407989501953,0.0023330727126449347,0.06684675067663193,4.9091572761535645,4.576873777750734e-07,0.34095367789268494,-0.005002128425985575,0.0,False,2
14.3,-7.611222267150879,133.06553649902344,0.25827139616012573,0.001079169800505042,89.37152862548828,0.002111944369971752,0.06921768188476562,4.909358501434326,6.865310524517554e-07,0.3409562110900879,-0.004386229906231165,0.0,False,2
14.4,-7.604616641998291,133.55650329589844,0.25827139616012573,0.001079169800505042,89.32588195800781,0.0018259722273796797,0.07109227776527405,4.909560680389404,2.6698430133365036e-07,0.3409675657749176,-0.0037988577969372272,0.0,False,2
14.5,-7.597782611846924,134.04745483398438,0.25827133655548096,0.001079169800505042,89.28636169433594,0.0015564250061288476,0.07269694656133652,4.909762859344482,6.674607675449806e-07,0.34098002314567566,-0.0032882411032915115,0.0,False,2
14.600000000000001,-7.590752601623535,134.53846740722656,0.2582714259624481,0.001079169800505042,89.25213623046875,0.001326780067756772,0.07407717406749725,4.909967422485352,1.2777105666827993e-06,0.3409872055053711,-0.002844552043825388,0.0,False,2
14.700000000000001,-7.583554744720459,135.02947998046875,0.25827139616012573,0.001079169800505042,89.22264862060547,0.001127450494095683,0.07522542774677277,4.910174369812012,2.288436888875367e-07,0.34099411964416504,-0.002449559513479471,0.0,False,2
14.8,-7.576213359832764,135.52049255371094,0.2582714855670929,0.001079169800505042,89.19727325439453,0.0009579344769008458,0.0761992409825325,4.910381317138672,-1.5256246399530937e-07,0.34099677205085754,-0.0021061315201222897,0.0,False,2
14.9,-7.568650722503662,136.01156616210938,0.25827139616012573,0.001079169800505042,89.17144012451172,0.0012346630683168769,0.07876434922218323,4.910558700561523,9.535153111528416e-08,0.34100016951560974,-0.002236945554614067,0.0,False,2
15.0,-7.561002254486084,136.5026397705078,0.2582714259624481,0.001079169800505042,89.15116882324219,0.0008484053541906178,0.07850350439548492,4.9107794761657715,-7.818825906724669e-07,0.341005802154541,-0.001615028129890561,0.0,False,2
15.100000000000001,-7.553287029266357,136.99371337890625,0.2582714259624481,0.001079169800505042,89.13483428955078,0.0005629905499517918,0.07890313118696213,4.910987854003906,-7.628123199765469e-08,0.3410159647464752,-0.0013429508544504642,0.0,False,2
15.200000000000001,-7.545494079589844,137.48483276367188,0.2582714259624481,0.001079169800505042,89.1207504272461,0.00047393073327839375,0.07948406040668488,4.911191940307617,6.483904826382059e-07,0.34102267026901245,-0.0011706182267516851,0.0,False,2
15.3,-7.537628173828125,137.97596740722656,0.25827136635780334,0.001079169800505042,89.10845947265625,0.00044573546620085835,0.08002373576164246,4.911395072937012,-1.1442184444376835e-07,0.34103086590766907,-0.0010240069823339581,0.0,False,2
15.4,-7.529694557189941,138.46710205078125,0.25827133655548096,0.001079169800505042,89.09757232666016,0.00043328970787115395,0.0805482491850853,4.911595821380615,9.535153822071152e-07,0.341037780046463,-0.0009072939865291119,0.0,False,2
15.5,-7.521695613861084,138.9582977294922,0.2582714855670929,0.001079169800505042,89.08769226074219,0.00043745231232605875,0.0811254233121872,4.911795139312744,-1.2014294270557002e-06,0.34104692935943604,-0.0008306761737912893,0.0,False,2
15.600000000000001,-7.513627052307129,139.44949340820312,0.2582714259624481,0.001079169800505042,89.07840728759766,0.00045538332778960466,0.08175260573625565,4.911993503570557,-2.6698430133365036e-07,0.3410571813583374,-0.000783249968662858,0.0,False,2
15.700000000000001,-7.505486488342285,139.940673828125,0.2582714259624481,0.001079169800505042,89.06937408447266,0.0004943158710375428,0.08248405158519745,4.912189960479736,3.8140612446113664e-07,0.34106534719467163,-0.0007716359104961157,0.0,False,2
15.8,-7.497262001037598,140.4319305419922,0.2582715153694153,0.001079169800505042,89.06011962890625,0.000559183768928051,0.08336146175861359,4.912384510040283,-9.916559520206647e-07,0.34107252955436707,-0.0007970299338921905,0.0,False,2
15.9,-7.488944053649902,140.92318725585938,0.2582714855670929,0.001079169800505042,89.0502700805664,0.00064734963234514,0.08440172672271729,4.912574768066406,4.767576911035576e-07,0.3410806953907013,-0.0008542504510842264,0.0,False,2
16.0,-7.480532646179199,141.4144287109375,0.2582714855670929,0.001079169800505042,89.0401611328125,0.0006794255459681153,0.08532684296369553,4.912766933441162,-8.581638439864037e-07,0.34108635783195496,-0.000867362366989255,0.0,False,2
16.1,-7.472062587738037,141.90574645996094,0.2582714259624481,0.001079169800505042,89.03121948242188,0.0005524778389371932,0.08569016307592392,4.912968158721924,-4.1954677953981445e-07,0.34109610319137573,-0.0007408153614960611,0.0,False,2
16.2,-7.463565349578857,142.39706420898438,0.2582714855670929,0.001079169800505042,89.02418518066406,0.00034337679971940815,0.08568979054689407,4.913175106048584,-5.14898317760526e-07,0.341102659702301,-0.0005627602804452181,0.0,False,2
16.3,-7.455071449279785,142.8883819580078,0.25827136635780334,0.001079169800505042,89.01962280273438,0.00010536167246755213,0.08534497022628784,4.913386821746826,-2.6698430133365036e-07,0.34111180901527405,-0.0003473785473033786,0.0,False,2
16.400000000000002,-7.4466094970703125,143.37974548339844,0.2582714855670929,0.001079169800505042,89.01773071289062,-0.00012207023974042386,0.08468472957611084,4.913603782653809,-3.2419524131910293e-07,0.34112024307250977,-0.00010956748155876994,0.0,False,2
16.5,-7.438210487365723,143.87110900878906,0.2582714855670929,0.001079169800505042,89.01890563964844,-0.00036621085018850863,0.08366329222917557,4.913826942443848,1.3921323898102855e-06,0.34112972021102905,0.0001574117923155427,0.0,False,2
16.6,-7.429906845092773,144.3625030517578,0.2582714259624481,0.001079169800505042,89.02336120605469,-0.0006103516207076609,0.08229879289865494,4.914055824279785,-1.1442184444376835e-07,0.34113964438438416,0.00044158182572573423,0.0,False,2
16.7,-7.421733379364014,144.8539276123047,0.2582714855670929,0.001079169800505042,89.03126525878906,-0.0008544921292923391,0.08058252185583115,4.914289951324463,-7.437419640154985e-07,0.341146320104599,0.0007415745640173554,0.0,False,2
16.8,-7.413721561431885,145.34535217285156,0.2582715153694153,0.001079169800505042,89.04277038574219,-0.0010986328125,0.07852072268724442,4.914529323577881,-2.288436888875367e-07,0.34115517139434814,0.0010519083589315414,0.0,False,2
16.900000000000002,-7.405901908874512,145.8368377685547,0.25827139616012573,0.001079169800505042,89.05783081054688,-0.0013122556265443563,0.07617781311273575,4.914770603179932,-8.009528755792417e-07,0.3411635756492615,0.0013544647954404354,0.0,False,2
17.0,-7.398304462432861,146.3283233642578,0.2582714855670929,0.001079169800505042,89.07638549804688,-0.00152587890625,0.07354380190372467,4.915014266967773,-4.0047643778962083e-07,0.34117090702056885,0.0016544898971915245,0.0,False,2
17.1,-7.390956878662109,146.81983947753906,0.2582714259624481,0.001079169800505042,89.09838104248047,-0.0017395017202943563,0.07063879817724228,4.91525936126709,3.2419524131910293e-07,0.34118151664733887,0.0019476923625916243,0.0,False,2
17.2,-7.3838982582092285,147.31137084960938,0.25827136635780334,0.001079169800505042,89.12421417236328,-0.0019836423452943563,0.0672549307346344,4.915510654449463,-1.926101049321005e-06,0.34119153022766113,0.002286823932081461,0.0,False,2
17.3,-7.377142906188965,147.8029327392578,0.25827136635780334,0.001079169800505042,89.15309143066406,-0.0021362302359193563,0.06392047554254532,4.915760040283203,3.2419524131910293e-07,0.3412030339241028,0.0025279971305280924,0.0,False,2
17.400000000000002,-7.370706558227539,148.29452514648438,0.2582714855670929,0.001079169800505042,89.18466186523438,-0.0022583005484193563,0.06041945144534111,4.916009426116943,4.958279760103323e-07,0.34120896458625793,0.0027550733648240566,0.0,False,2
17.5,-7.364607810974121,148.78611755371094,0.2582714259624481,0.001079169800505042,89.21871948242188,-0.00238037109375,0.05676181986927986,4.916257381439209,7.246716791087238e-07,0.34121596813201904,0.0029662034939974546,0.0,False,2
17.6,-7.358860492706299,149.27777099609375,0.25827139616012573,0.001079169800505042,89.25505065917969,-0.0024719235952943563,0.052987050265073776,4.91650390625,-1.3349215066682518e-07,0.3412242531776428,0.0031550072599202394,0.0,False,2
17.7,-7.3534770011901855,149.76942443847656,0.25827139616012573,0.001079169800505042,89.29334259033203,-0.0025634760968387127,0.049132220447063446,4.916748046875,4.576873777750734e-07,0.34123414754867554,0.0033181447070091963,0.0,False,2
17.8,-7.3484649658203125,150.2611083984375,0.2582714855670929,0.001079169800505042,89.33321380615234,-0.0026245112530887127,0.045252781361341476,4.916987895965576,-2.8605461466213455e-07,0.3412420153617859,0.003448281902819872,0.0,False,2
17.900000000000002,-7.343827724456787,150.75282287597656,0.25827154517173767,0.001079169800505042,89.37434387207031,-0.0026550290640443563,0.04137067124247551,4.917225360870361,1.5256246399530937e-07,0.3412511646747589,0.003548574633896351,0.0,False,2
18.0,-7.339569091796875,151.24453735351562,0.2582715153694153,0.001079169800505042,89.4163818359375,-0.0026550290640443563,0.03750097006559372,4.9174604415893555,-5.14898317760526e-07,0.3412621021270752,0.003622596152126789,0.0,False,2
18.1,-7.33568811416626,151.73631286621094,0.2582715153694153,0.001079169800505042,89.45903778076172,-0.0026550290640443563,0.0336623340845108,4.917693138122559,5.339686026673007e-07,0.3412703573703766,0.0036720726639032364,0.0,False,2
18.2,-7.332182884216309,152.22808837890625,0.25827139616012573,0.001079169800505042,89.5020751953125,-0.0026550290640443563,0.029876146465539932,4.917922496795654,4.958279760103323e-07,0.34127771854400635,0.00369753735139966,0.0,False,2
18.3,-7.329050540924072,152.7198944091797,0.2582714855670929,0.001079169800505042,89.54521942138672,-0.0026245112530887127,0.026150476187467575,4.918149471282959,1.9070306223056832e-07,0.34128445386886597,0.003702981397509575,0.0,False,2
18.400000000000002,-7.3263726234436035,153.21173095703125,0.2582715153694153,0.001079169800505042,89.59178161621094,-0.0029602048452943563,0.020969199016690254,4.918376445770264,3.814061599882734e-08,0.3412933647632599,0.004066844936460257,0.0,False,2
18.5,-7.3240556716918945,153.7035675048828,0.2582714855670929,0.001079169800505042,89.63652038574219,-0.0027465817984193563,0.0179755836725235,4.91859245300293,7.246716791087238e-07,0.3412994146347046,0.00378411915153265,0.0,False,2
18.6,-7.322075843811035,154.1954345703125,0.2582714855670929,0.001079169800505042,89.67947387695312,-0.0025024411734193563,0.01474578958004713,4.918807029724121,-2.479139880051662e-07,0.3413136303424835,0.0036583293695002794,0.0,False,2
18.7,-7.320436954498291,154.6873321533203,0.25827154517173767,0.001079169800505042,89.7214584350586,-0.0023803708609193563,0.011408657766878605,4.9190216064453125,8.200231604860164e-07,0.3413194417953491,0.0035865369718521833,0.0,False,2
18.8,-7.319136619567871,155.17922973632812,0.2582714259624481,0.001079169800505042,89.76262664794922,-0.0023193357046693563,0.00811636820435524,4.919230937957764,1.5256246399530937e-07,0.34132859110832214,0.0035180768463760614,0.0,False,2
18.900000000000002,-7.318164348602295,155.67117309570312,0.2582714259624481,0.001079169800505042,89.80277252197266,-0.0022583005484193563,0.004986349493265152,4.919439792633057,-7.628123199765469e-08,0.3413331210613251,0.003425469622015953,0.0,False,2
19.0,-7.317502975463867,156.1631317138672,0.25827139616012573,0.001079169800505042,89.84162902832031,-0.002166748046875,0.0020491755567491055,4.919646263122559,-2.479139880051662e-07,0.3413466513156891,0.0033090715296566486,0.0,False,2
19.1,-7.317137241363525,156.65509033203125,0.2582715153694153,0.001079169800505042,89.87907409667969,-0.0020751950796693563,-0.0007478505140170455,4.919850826263428,1.1442184444376835e-07,0.3413522243499756,0.00318813300691545,0.0,False,2
19.200000000000003,-7.317056179046631,157.14710998535156,0.2582714855670929,0.001079169800505042,89.91513061523438,-0.001983642578125,-0.0034197350032627583,4.920053482055664,-9.535153111528416e-08,0.34136027097702026,0.003066408447921276,0.0,False,2
19.3,-7.317240238189697,157.6391143798828,0.25827154517173767,0.001079169800505042,89.94947814941406,-0.0018615724984556437,-0.005855271592736244,4.920254707336426,7.628122489222733e-07,0.34136930108070374,0.0029165372252464294,0.0,False,2
19.400000000000002,-7.317656517028809,158.1311492919922,0.2582715153694153,0.001079169800505042,89.98141479492188,-0.001678466796875,-0.007836203090846539,4.9204559326171875,3.432655262258777e-07,0.34137850999832153,0.0026928591541945934,0.0,False,2
19.5,-7.318274974822998,158.6232147216797,0.2582714259624481,0.001079169800505042,90.01060485839844,-0.00146484375,-0.00951322726905346,4.920655250549316,3.432655262258777e-07,0.34138697385787964,0.0024531870149075985,0.0,False,2
19.6,-7.319188594818115,159.11529541015625,0.2582715153694153,0.001079169800505042,90.04183959960938,-0.0017700196476653218,-0.013048814609646797,4.920847415924072,2.288436888875367e-07,0.3413945138454437,0.0027318326756358147,0.0,False,2
19.700000000000003,-7.320276737213135,159.6073760986328,0.25827139616012573,0.001079169800505042,90.06905364990234,-0.0014343260554596782,-0.013822888024151325,4.921048641204834,0.0,0.34140604734420776,0.002235956024378538,0.0,False,2
19.8,-7.32150936126709,160.09950256347656,0.2582714855670929,0.001079169800505042,90.09298706054688,-0.0011291501577943563,-0.01502449344843626,4.921248912811279,-2.0977338976990723e-07,0.34141823649406433,0.00200184085406363,0.0,False,2
19.900000000000002,-7.322894096374512,160.59164428710938,0.25827139616012573,0.001079169800505042,90.11494445800781,-0.0010070801945403218,-0.016359277069568634,4.921449661254883,-4.958279760103323e-07,0.3414219319820404,0.0018507945351302624,0.0,False,2
20.0,-7.324421405792236,161.08380126953125,0.25827136635780334,0.001079169800505042,90.13517761230469,-0.0009460448054596782,-0.017585260793566704,4.921649932861328,4.386170644465892e-07,0.3414304554462433,0.0017050337046384811,0.0,False,2
20.1,-7.326076030731201,161.57598876953125,0.2582714259624481,0.001079169800505042,90.15369415283203,-0.0008850097074173391,-0.018653474748134613,4.921849727630615,8.96304470643372e-07,0.3414362668991089,0.0015549632953479886,0.0,False,2
20.200000000000003,-7.3278422355651855,162.06817626953125,0.25827139616012573,0.001079169800505042,90.17039489746094,-0.0007934569730423391,-0.019561264663934708,4.9220499992370605,-1.907030799941367e-08,0.3414449989795685,0.0014026695862412453,0.0,False,2
20.3,-7.329710960388184,162.56039428710938,0.2582714259624481,0.001079169800505042,90.18553924560547,-0.0007019043550826609,-0.020401734858751297,4.922249794006348,1.106077775148151e-06,0.34145450592041016,0.00127139943651855,0.0,False,2
20.400000000000002,-7.331667423248291,163.05262756347656,0.2582714259624481,0.001079169800505042,90.19913482666016,-0.0006103514460846782,-0.021102776750922203,4.922449111938477,1.3349215066682518e-07,0.34146201610565186,0.0011371327564120293,0.0,False,2
20.5,-7.333701133728027,163.54489135742188,0.2582715153694153,0.001079169800505042,90.21119689941406,-0.0005187987699173391,-0.021690532565116882,4.922647476196289,3.2419524131910293e-07,0.34147268533706665,0.001008214894682169,0.0,False,2
20.6,-7.335801124572754,164.03720092773438,0.2582714855670929,0.001079169800505042,90.22185516357422,-0.0004272461519576609,-0.0221929382532835,4.922847270965576,-1.0870074902413762e-06,0.3414812684059143,0.0008898320375010371,0.0,False,2
20.700000000000003,-7.337958335876465,164.52951049804688,0.2582714855670929,0.001079169800505042,90.23118591308594,-0.0003662108792923391,-0.02261330373585224,4.9230499267578125,-1.659116833252483e-06,0.34149298071861267,0.0007801374886184931,0.0,False,2
20.8,-7.340228080749512,165.02182006835938,0.2582714259624481,0.001079169800505042,90.24192810058594,-0.0005798339261673391,-0.02409403771162033,4.923245906829834,-2.6698430133365036e-07,0.34149980545043945,0.0009579721372574568,0.0,False,2
20.900000000000002,-7.342530250549316,165.5141143798828,0.25827139616012573,0.001079169800505042,90.25012969970703,-0.00036621096660383046,-0.023805908858776093,4.923450946807861,-2.0977338976990723e-07,0.3415044844150543,0.0006425052997656167,0.0,False,2
21.0,-7.344851493835449,166.00643920898438,0.2582714855670929,0.001079169800505042,90.25640869140625,-0.00018310546875,-0.023864412680268288,4.923655033111572,-3.8140612446113664e-07,0.3415154814720154,0.0005121568683534861,0.0,False,2
21.1,-7.347196102142334,166.49887084960938,0.2582714855670929,0.001079169800505042,90.26160430908203,-0.00012207029067212716,-0.024005237966775894,4.923857688903809,-3.8140612446113664e-07,0.34152159094810486,0.00042870495235547423,0.0,False,2
21.200000000000003,-7.349558353424072,166.9912872314453,0.2582714259624481,0.001079169800505042,90.26577758789062,-9.1552734375e-05,-0.024055341258645058,4.924059867858887,-5.911795142310439e-07,0.3415297269821167,0.0003402942675165832,0.0,False,2
21.3,-7.351930141448975,167.48370361328125,0.2582714259624481,0.001079169800505042,90.26895904541016,-6.103511987021193e-05,-0.024039356037974358,4.924262046813965,-6.865310524517554e-07,0.34153833985328674,0.00025711790658533573,0.0,False,2
21.400000000000002,-7.35430383682251,167.97613525390625,0.2582714259624481,0.001079169800505042,90.27118682861328,-3.0517610866809264e-05,-0.023952536284923553,4.924463272094727,-4.576873777750734e-07,0.34154897928237915,0.00017691159155219793,0.0,False,2
21.5,-7.3566765785217285,168.4685516357422,0.2582714855670929,0.001079169800505042,90.27257537841797,6.779589966754429e-06,-0.023835858330130577,4.9246649742126465,-4.576873777750734e-07,0.3415575623512268,0.00010897434549406171,0.0,False,2
21.6,-7.359037399291992,168.9610137939453,0.25827136635780334,0.001079169800505042,90.27313995361328,5.010417226003483e-05,-0.02363550290465355,4.924866676330566,5.721092293242691e-07,0.3415686786174774,3.6438636016100645e-05,0.0,False,2
21.700000000000003,-7.361307621002197,169.43885803222656,0.25840383768081665,-0.014712226577103138,90.27378845214844,6.063210457796231e-05,-0.021806081756949425,4.5849103927612305,2.6698430133365036e-07,0.0,-2.5436165742576122e-05,1.0,False,2
21.8,-7.3633575439453125,169.8431396484375,0.25888168811798096,-0.0716213583946228,90.28309631347656,-0.0007324215839616954,-0.0193382129073143,3.5553765296936035,-3.0321787107823184e-06,0.0,0.0007941590738482773,1.0,False,2
21.900000000000002,-7.364948749542236,170.12350463867188,0.2594504952430725,-0.13937683403491974,90.29793548583984,-0.0013732855441048741,-0.014546203427016735,2.273568868637085,-7.78068533691112e-06,0.0,0.0016263227444142103,1.0,False,0
22.0,-7.366026878356934,170.27597045898438,0.25979530811309814,-0.18050822615623474,90.3134994506836,-0.0015564103377982974,-0.008389068767428398,0.9941855669021606,-8.848622201185208e-06,0.0,0.0035031153820455074,1.0,False,0
22.1,-7.366544723510742,170.30287170410156,0.2599021792411804,-0.19329434633255005,90.29961395263672,-0.0009460531873628497,-0.00011260103201493621,-0.00013923972437623888,-3.89034266845556e-06,0.0,0.010279618203639984,1.0,False,0
22.200000000000003,-7.36654806137085,170.30325317382812,0.2593235671520233,-0.1244187206029892,90.29961395263672,-0.0001831015251809731,-3.947251752833836e-05,-0.00039414491038769484,1.2357559171505272e-05,0.0,0.0032468829303979874,1.0,False,0
22.3,-7.366552352905273,170.3036346435547,0.2587946951389313,-0.06133509427309036,90.29961395263672,4.162482582614757e-05,-1.9071923816227354e-05,-0.0002783724630717188,8.486286787956487e-06,0.0,0.004469386767596006,1.0,False,0
22.400000000000002,-7.36655330657959,170.30384826660156,0.2584947943687439,-0.02553807571530342,90.29961395263672,9.574188152328134e-05,-6.177808700158494e-06,-0.0001443187502445653,3.184741217410192e-06,0.0,0.004224232863634825,1.0,False,1
22.5,-7.366553783416748,170.30393981933594,0.2583569288253784,-0.0090978117659688,90.29961395263672,8.129775960696861e-05,-5.961873057458433e-07,-6.193907756824046e-05,-3.814061599882734e-08,0.0,0.00422584218904376,1.0,False,1
22.6,-7.366554260253906,170.30398559570312,0.2583027184009552,-0.00262279249727726,90.29961395263672,5.067561141913757e-05,1.2954977819390479e-06,-2.258301174151711e-05,-1.487483928030997e-06,0.0,0.004222265910357237,1.0,False,1
22.700000000000003,-7.366554260253906,170.3040008544922,0.2582845687866211,-0.00045762263471260667,90.29961395263672,2.065765693259891e-05,7.292505443956543e-08,-6.791791747673415e-06,-1.353991819996736e-06,0.0,0.004222265910357237,1.0,False,1
22.8,-7.366555213928223,170.3040008544922,0.25827980041503906,0.00010928302071988583,90.29961395263672,6.787614665881847e-07,-3.535105763674551e-09,-1.4000818282511318e-06,-5.339686026673007e-07,0.0,0.004222265910357237,1.0,False,1
22.900000000000002,-7.366555213928223,170.3040008544922,0.25827980041503906,0.00010928302071988583,90.29961395263672,6.787614665881847e-07,5.827050397755329e-09,5.4265324678226534e-08,-5.721092293242691e-07,0.0,0.004225723445415497,1.0,False,1
23.0,-7.366555213928223,170.3040008544922,0.25827980041503906,0.00010928302071988583,90.29961395263672,6.787614665881847e-07,-6.037958399929266e-08,2.6391879259790585e-07,-9.153747555501468e-07,0.0,0.004223339259624481,1.0,False,1
23.1,-7.366555213928223,170.3040008544922,0.25827980041503906,0.00010928302071988583,90.29961395263672,6.787614665881847e-07,-2.2763753104726447e-09,1.893844085998353e-07,-3.814061599882734e-08,0.0,0.004223339259624481,1.0,False,1
23.200000000000003,-7.366555213928223,170.3040008544922,0.25827980041503906,0.00010928302071988583,90.29961395263672,6.787614665881847e-07,-5.187898999281515e-10,9.228151753859493e-08,-4.958279760103323e-07,0.0,0.004223339259624481,1.0,False,1
23.3,-7.366555213928223,170.3040008544922,0.25827980041503906,0.00010928302071988583,90.29961395263672,6.787614665881847e-07,-2.9120192368559117e-10,3.621910593665234e-08,-3.432655262258777e-07,0.0,0.004223339259624481,1.0,False,1
23.400000000000002,-7.366555213928223,170.3040008544922,0.25827980041503906,0.00010928302071988583,90.29961395263672,6.787614665881847e-07,-1.1342152106408321e-08,6.3013354534291466e-09,1.7163276311293885e-07,0.0,0.004223339259624481,1.0,False,1
23.5,-7.366555213928223,170.3040008544922,0.25827980041503906,0.00010928302071988583,90.29961395263672,6.787614665881847e-07,1.1464956761741973e-10,-4.528785346735731e-09,1.2586402817760245e-06,0.0,0.004223339259624481,1.0,False,1
23.6,-7.366555213928223,170.3040008544922,0.25827980041503906,0.00010928302071988583,90.29961395263672,6.787614665881847e-07,-5.4789239117836175e-11,-5.189265017691014e-09,2.6698430133365036e-07,0.0,0.004223339259624481,1.0,False,1
23.700000000000003,-7.366555213928223,170.3040008544922,0.25827980041503906,0.00010928302071988583,90.29961395263672,6.787614665881847e-07,-1.1041331404726407e-08,-5.892633048176776e-09,3.8140612446113664e-07,0.0,0.004223339259624481,1.0,False,1
23.8,-7.366555213928223,170.3040008544922,0.25827980041503906,0.00010928302071988583,90.29961395263672,6.787614665881847e-07,-1.5403850417428089e-09,1.3941362730918172e-08,8.009528755792417e-07,0.0,0.004223339259624481,1.0,False,1
23.900000000000002,-7.366555213928223,170.3040008544922,0.25827980041503906,0.00010928302071988583,90.29961395263672,6.787614665881847e-07,-1.5178761580969535e-09,1.3067904092167737e-08,8.96304470643372e-07,0.0,0.004223339259624481,1.0,False,1
24.0,-7.366555213928223,170.3040008544922,0.25827980041503906,0.00010928302071988583,90.29961395263672,6.787614665881847e-07,-1.080188560820261e-08,-8.301674014887794e-09,6.865310524517554e-07,0.0,0.004223339259624481,1.0,False,1
24.1,-7.366555213928223,170.3040008544922,0.25827980041503906,0.00010928302071988583,90.29961395263672,6.787614665881847e-07,1.1132414989845074e-08,1.8061996343021747e-09,9.344450404569216e-07,0.0,0.004223339259624481,1.0,False,1
24.200000000000003,-7.366555213928223,170.3040008544922,0.25827980041503906,0.00010928302071988583,90.29961395263672,6.787614665881847e-07,-1.4588124042091977e-09,1.1274377875736263e-08,1.2014294270557002e-06,0.0,0.004223339259624481,1.0,False,1
24.3,-7.366555213928223,170.3040008544922,0.25827980041503906,0.00010928302071988583,90.29961395263672,6.787614665881847e-07,-1.0876689771066594e-08,9.426313063443104e-09,-1.3349215066682518e-07,0.0,0.004223339259624481,1.0,False,1
24.400000000000002,-7.366555213928223,170.3040008544922,0.25827980041503906,0.00010928302071988583,90.29961395263672,6.787614665881847e-07,1.6060585084076706e-09,-1.4993944974506235e-09,-4.958279760103323e-07,0.0,0.004223339259624481,1.0,False,1
24.5,-7.366555213928223,170.3040008544922,0.25827980041503906,0.00010928302071988583,90.29961395263672,6.787614665881847e-07,-5.497398109649554e-12,7.0764230031272746e-09,-5.721092293242691e-07,0.0,0.004223339259624481,1.0,False,1
24.6,-7.366555213928223,170.3040008544922,0.25827980041503906,0.00010928302071988583,90.29961395263672,6.787614665881847e-07,-8.042026766741373e-11,8.025353714913308e-09,-8.009528755792417e-07,0.0,0.004223339259624481,1.0,False,1
24.700000000000003,-7.366555213928223,170.3040008544922,0.25827980041503906,0.00010928302071988583,90.29961395263672,6.787614665881847e-07,1.2362887602535011e-08,-3.554658789539644e-09,2.0977338976990723e-07,0.0,0.004223339259624481,1.0,False,1
24.8,-7.366555213928223,170.3040008544922,0.25827980041503906,0.00010928302071988583,90.29961395263672,6.787614665881847e-07,1.0547445555841861e-10,8.146117558283095e-09,4.767576911035576e-07,0.0,0.004223339259624481,1.0,False,1
24.900000000000002,-7.366555213928223,170.3040008544922,0.25827980041503906,0.00010928302071988583,90.29961395263672,6.787614665881847e-07,-1.090685231019961e-08,7.455990491678222e-09,5.911795142310439e-07,0.0,0.004223339259624481,1.0,False,1
