t,x,y,z,pitch,yaw,roll,vx,vy,vz,throttle,steer,brake,reverse,gear
0.0,-70.15645599365234,-15.41109848022461,0.29999998211860657,0.0,179.79132080078125,0.0,0.0,0.0,0.0,0.0,0.0,0.0,False,0
0.1,-70.15645599365234,-15.41109848022461,0.2428586781024933,0.0,179.79132080078125,0.0,0.0,0.0,-0.9794285297393799,0.0,0.0,0.0,False,0
0.2,-70.15645599365234,-15.41109848022461,0.09282735735177994,0.0,179.79132080078125,0.0,1.1722690373972e-07,-9.887162377708592e-07,-1.6581377983093262,0.699999988079071,0.15001951158046722,0.0,False,0
0.30000000000000004,-70.15645599365234,-15.41109848022461,0.008942660875618458,0.0,179.79132080078125,0.0,4.134287912016532e-10,-1.3381325913996989e-07,-0.4019882380962372,0.3218954801559448,0.046566519886255264,0.0,False,0
0.4,-70.15645599365234,-15.41109848022461,-5.1364899263717234e-05,0.0,179.79132080078125,0.0,9.798672984118184e-10,-1.5606289593961264e-07,0.05660576373338699,0.5019685626029968,0.04657169431447983,0.0,False,0
0.5,-70.15645599365234,-15.41109848022461,0.012554416432976723,0.0,179.79132080078125,0.0,-2.1300821106962076e-09,2.570747028585174e-07,0.14580051600933075,0.699999988079071,0.04657686501741409,0.0,False,0
0.6000000000000001,-70.15645599365234,-15.41109848022461,0.02552785724401474,0.0,179.79132080078125,0.0,9.88185266947994e-09,-7.903064869196896e-08,0.1111636832356453,0.699999988079071,0.04658203944563866,0.0,False,0
0.7000000000000001,-70.15645599365234,-15.41109848022461,0.03358674794435501,0.0,179.79132080078125,0.0,-9.435257436463118e-11,-9.836657000050764e-08,0.05990584194660187,0.699999988079071,0.04658721387386322,0.0,False,0
0.8,-70.15645599365234,-15.41109848022461,0.037347812205553055,0.0,179.79132080078125,0.0,3.1737229511108467e-10,-7.335385987516929e-08,0.024392621591687202,0.699999988079071,0.046592384576797485,0.0,False,0
0.9,-70.15645599365234,-15.41109848022461,0.03861783817410469,0.0,179.79132080078125,0.0,-7.942797530802181e-10,-4.942060272128401e-08,0.006387027446180582,0.699999988079071,0.04659755900502205,0.0,False,0
1.0,-70.15645599365234,-15.41109848022461,0.03879495710134506,0.0,179.79132080078125,0.0,-1.0243162984480136e-09,-8.68174367951724e-08,-0.0004355467390269041,0.699999988079071,0.046602729707956314,0.0,False,0
1.1,-70.15645599365234,-15.41109848022461,0.0386391244828701,0.0,179.79132080078125,0.0,8.661589667724456e-09,-4.375885964691406e-08,-0.0019192356849089265,0.699999988079071,0.04660790413618088,0.0,False,0
1.2000000000000002,-70.15645599365234,-15.41109848022461,0.03846284747123718,0.0,179.79132080078125,0.0,-3.09472847348502e-09,-2.4624586814070426e-08,-0.0015382490819320083,0.699999988079071,0.04661307856440544,0.0,False,0
1.3,-70.15645599365234,-15.41109848022461,0.038349591195583344,0.0,179.79132080078125,0.0,-3.0006566120732714e-09,5.961430238343723e-10,-0.000852976692840457,0.699999988079071,0.046618249267339706,0.0,False,0
1.4000000000000001,-70.15645599365234,-15.41109848022461,0.038295306265354156,0.0,179.79132080078125,0.0,8.114457439312162e-10,1.3302181578467298e-09,-0.00035789248067885637,0.699999988079071,0.04662342369556427,0.0,False,0
1.5,-70.15645599365234,-15.41109848022461,0.03827611729502678,0.0,179.79132080078125,0.0,1.0507602565823504e-09,-4.1821618390613935e-10,-0.00010065308742923662,0.699999988079071,0.046628594398498535,0.0,False,0
1.6,-70.15645599365234,-15.41109848022461,0.0382729135453701,0.0,179.79132080078125,0.0,1.3875955939823825e-09,-1.14478932999873e-08,1.94517133422778e-06,0.699999988079071,0.0466337688267231,0.0,False,0
1.7000000000000002,-70.15645599365234,-15.41109848022461,0.038274820894002914,0.0,179.79132080078125,0.0,1.0397178257237627e-10,-2.780345120800831e-10,2.5706774977152236e-05,0.699999988079071,0.046638939529657364,0.0,False,0
1.8,-70.15645599365234,-15.41109848022461,0.03827718645334244,0.0,179.79132080078125,0.0,-4.6080680937699015e-10,-1.0037296549469943e-09,2.1606658265227452e-05,0.699999988079071,0.04664411395788193,0.0,False,0
1.9000000000000001,-70.15645599365234,-15.41109848022461,0.03827882558107376,0.0,179.79132080078125,0.0,7.294488901798957e-10,-5.080078024910506e-10,1.306316062255064e-05,0.699999988079071,0.04664928838610649,0.0,False,0
2.0,-70.15645599365234,-15.41109848022461,0.03827882558107376,0.0,179.79132080078125,0.0,-1.113382008810504e-08,1.2254227854668898e-08,4.805717708222801e-06,0.699999988079071,0.046654459089040756,0.0,False,0
2.1,-70.15645599365234,-15.41109848022461,0.03827882558107376,0.0,179.79132080078125,0.0,8.603727508216252e-09,2.910322294269463e-08,2.4791399937384995e-06,0.699999988079071,0.04665963351726532,0.0,False,0
2.2,-70.15645599365234,-15.41109848022461,0.03827882558107376,0.0,179.79132080078125,0.0,-1.065839971836624e-09,-3.6273852810353446e-09,6.102498559812375e-07,0.699999988079071,0.046664804220199585,0.0,False,0
2.3000000000000003,-70.15645599365234,-15.41109848022461,0.03827882558107376,0.0,179.79132080078125,0.0,5.206771125365606e-10,2.578075974923877e-09,1.907030799941367e-08,0.699999988079071,0.04666997864842415,0.0,False,0
2.4000000000000004,-70.15645599365234,-15.41109848022461,0.03827882558107376,0.0,179.79132080078125,0.0,1.0135132733068986e-09,9.048633509145532e-10,-4.576873777750734e-07,0.699999988079071,0.04667515307664871,0.0,False,0
2.5,-70.15645599365234,-15.41109848022461,0.03827882558107376,0.0,179.79132080078125,0.0,5.277203118936313e-10,-1.0502975156256866e-09,-1.1442184586485382e-06,0.699999988079071,0.04668032377958298,0.0,False,0
2.6,-70.1858901977539,-15.41196346282959,0.0380045510828495,0.032655131071805954,179.8314971923828,-0.005523680709302425,-0.6928879618644714,-0.02697036601603031,-3.432655262258777e-07,0.699999988079071,0.04668549820780754,0.0,False,0
2.7,-70.31031799316406,-15.415545463562012,0.037512872368097305,0.09127864241600037,179.98802185058594,-0.015258788131177425,-1.6126071214675903,-0.06365494430065155,-4.195467681711307e-06,0.699999988079071,0.046690668910741806,0.0,False,1
2.8000000000000003,-70.51826477050781,-15.422046661376953,0.03727998584508896,0.11900237947702408,-179.75865173339844,-0.021087646484375,-2.3906805515289307,-0.10196197032928467,-4.443381385499379e-06,0.699999988079071,0.046894632279872894,0.0,False,1
2.9000000000000004,-70.79496002197266,-15.430307388305664,0.037278421223163605,0.11917313188314438,-179.4910430908203,-0.017456049099564552,-3.005627393722534,-0.11596088856458664,-1.2014294270557002e-06,0.19785010814666748,0.03715692088007927,0.0,False,1
3.0,-71.11957550048828,-15.438957214355469,0.03744104132056236,0.09978906065225601,-179.2783966064453,-0.007873534224927425,-3.3845274448394775,-0.1087869256734848,3.051248995689093e-06,0.12506413459777832,0.024818364530801773,0.0,False,1
3.1,-71.4681396484375,-15.441171646118164,0.037697579711675644,0.06923762708902359,-179.3817901611328,0.025423241779208183,-3.534576892852783,0.006195458583533764,3.680569307107362e-06,0.13933449983596802,-0.018039101734757423,0.0,False,1
3.2,-71.82318878173828,-15.44326400756836,0.03795164078474045,0.03896622732281685,-179.4446258544922,0.018003839999437332,-3.5581917762756348,-0.01810629852116108,2.7270539249002468e-06,0.33428001403808594,-0.005610765889286995,0.0,False,1
3.3000000000000003,-72.17996978759766,-15.448204040527344,0.03811437636613846,0.019582150503993034,-179.38072204589844,-0.0019531248835846782,-3.586812973022461,-0.06253866851329803,-1.907030799941367e-08,0.5992012023925781,0.00946242455393076,0.0,False,1
3.4000000000000004,-72.54429626464844,-15.454545974731445,0.03815358877182007,0.014903471805155277,-179.2881317138672,-0.008575438521802425,-3.694974660873413,-0.07528965175151825,-9.7258566711389e-07,0.699999988079071,0.010631727986037731,0.0,False,1
3.5,-72.92321014404297,-15.461457252502441,0.038117196410894394,0.019267963245511055,-179.2060546875,-0.006958007346838713,-3.8613898754119873,-0.07892747968435287,-2.8605461466213455e-07,0.699999988079071,0.00862717255949974,0.0,False,1
3.6,-73.31999206542969,-15.467992782592773,0.03806840628385544,0.025053132325410843,-179.17079162597656,-0.0006408690824173391,-4.041329860687256,-0.06779145449399948,-2.0977338976990723e-07,0.5992699265480042,0.002772429957985878,0.0,False,1
3.7,-73.73308563232422,-15.47426986694336,0.03805219382047653,0.026992905884981155,-179.1619415283203,0.002674765419214964,-4.18696928024292,-0.06336500495672226,-5.721092293242691e-07,0.46272754669189453,0.0005423445254564285,0.0,False,1
3.8000000000000003,-74.1572265625,-15.480713844299316,0.0380813404917717,0.02349584922194481,-179.15330505371094,0.0020438155625015497,-4.271395683288574,-0.06595274806022644,-1.0679372053346015e-06,0.38310205936431885,0.0009240284562110901,0.0,False,1
3.9000000000000004,-74.58644104003906,-15.487489700317383,0.03814035281538963,0.016481244936585426,-179.1365509033203,0.0001381573820253834,-4.301586627960205,-0.07024069875478745,-9.153747555501468e-07,0.3801754117012024,0.0017825844697654247,0.0,False,1
4.0,-75.01702117919922,-15.494380950927734,0.03819810599088669,0.009589585475623608,-179.12147521972656,-0.00042724609375,-4.30894136428833,-0.07049473375082016,2.6698430133365036e-07,0.43514037132263184,0.0013990274164825678,0.0,False,1
4.1000000000000005,-75.4482650756836,-15.501277923583984,0.038234956562519073,0.005197773687541485,-179.1110382080078,-0.00021362301777116954,-4.311872959136963,-0.06989786028862,-2.6698430133365036e-07,0.49923062324523926,0.0009283819235861301,0.0,False,1
4.2,-75.8790054321289,-15.508152961730957,0.03826017305254936,0.002206150908023119,-179.10400390625,1.9558481653803028e-05,-4.304402828216553,-0.06933306902647018,3.432655262258777e-07,0.5282409191131592,0.0006254081381484866,0.0,False,0
4.3,-76.30899810791016,-15.51508617401123,0.03827344626188278,0.0006147170206531882,-179.0960235595703,-0.00021362303232308477,-4.296921730041504,-0.07028979063034058,3.0512492799061874e-07,0.5334535837173462,0.0008021004032343626,0.0,False,0
4.4,-76.7382583618164,-15.522038459777832,0.038279321044683456,-9.56226431299001e-05,-179.0893096923828,-0.00021362297411542386,-4.289473533630371,-0.0701453685760498,3.0512492799061874e-07,0.5504109859466553,0.0006186326500028372,0.0,False,0
4.5,-77.16676330566406,-15.528980255126953,0.03828153386712074,-0.00036883019492961466,-179.0845184326172,-9.155271982308477e-05,-4.28204345703125,-0.0698048397898674,4.767576911035576e-07,0.553083062171936,0.0004320989828556776,0.0,False,0
4.6000000000000005,-77.59905242919922,-15.535981178283691,0.03823366016149521,0.005348037928342819,-179.08145141601562,8.171766239684075e-06,-4.4152445793151855,-0.07176826149225235,2.040522986135329e-06,0.5557489395141602,0.000293464632704854,0.0,False,0
4.7,-78.05603790283203,-15.543375015258789,0.03808809071779251,0.022696716710925102,-179.07997131347656,0.00011472975165816024,-4.670177936553955,-0.07566112279891968,-1.7735386563799693e-06,0.5584109425544739,0.00018658011686056852,0.0,False,2
4.800000000000001,-78.53411102294922,-15.551039695739746,0.03802328184247017,0.030401170253753662,-179.0814208984375,0.0004302278393879533,-4.843597412109375,-0.07726147770881653,-1.9070306223056832e-07,0.31996679306030273,-0.0001369322999380529,0.0,False,2
4.9,-79.02235412597656,-15.558834075927734,0.038068559020757675,0.025012152269482613,-179.0830535888672,0.0004190089530311525,-4.890005588531494,-0.07784827053546906,-1.9070306223056832e-07,0.06568244099617004,-0.00011767461546696723,0.0,False,2
5.0,-79.5085220336914,-15.566617012023926,0.03818143904209137,0.011556679382920265,-179.0827178955078,0.00011094653746113181,-4.834729194641113,-0.07753168046474457,2.8605461466213455e-07,0.1181345134973526,5.392720049712807e-05,0.0,False,2
5.1000000000000005,-79.9875259399414,-15.57431697845459,0.03828062117099762,-0.0002458867966197431,-179.08123779296875,-0.00012207029067212716,-4.762609481811523,-0.07675103098154068,-9.344450404569216e-07,0.27648961544036865,0.00012372304627206177,0.0,False,2
5.2,-80.46151733398438,-15.581924438476562,0.03831788897514343,-0.004699169658124447,-179.08084106445312,-9.155271982308477e-05,-4.733144283294678,-0.07595526427030563,-2.288436888875367e-07,0.43498072028160095,3.553883288986981e-06,0.0,False,2
5.300000000000001,-80.9360122680664,-15.58952522277832,0.03829587996006012,-0.0020763773936778307,-179.08145141601562,1.5436302419402637e-05,-4.759766101837158,-0.07610023021697998,-1.3921323898102855e-06,0.48290765285491943,-6.399015546776354e-05,0.0,False,2
5.4,-81.4150390625,-15.59713363647461,0.03825235366821289,0.0031009058002382517,-179.08444213867188,0.00027156725991517305,-4.812436103820801,-0.07595523446798325,-3.814061599882734e-08,0.4346175491809845,-0.0002889021998271346,0.0,False,2
5.5,-81.89900970458984,-15.604731559753418,0.03822454437613487,0.006427207496017218,-179.08995056152344,0.000537061714567244,-4.8555192947387695,-0.07541836053133011,-1.907030799941367e-08,0.348652720451355,-0.000506975338794291,0.0,False,2
5.6000000000000005,-82.38571166992188,-15.61224365234375,0.03822576254606247,0.006290603894740343,-179.09852600097656,0.0008214118424803019,-4.87097692489624,-0.07394549995660782,5.911795142310439e-07,0.29497140645980835,-0.0007945085526444018,0.0,False,2
5.7,-82.87250518798828,-15.619624137878418,0.038246095180511475,0.0038727170322090387,-179.10914611816406,0.0009477008134126663,-4.864041328430176,-0.07237229496240616,9.535153111528416e-08,0.29344338178634644,-0.0009496198617853224,0.0,False,2
5.800000000000001,-83.358154296875,-15.626818656921387,0.03826677054166794,0.0013933584559708834,-179.12278747558594,0.0011420432711020112,-4.851707458496094,-0.07004258781671524,-4.0047643778962083e-07,0.32613521814346313,-0.0012437528930604458,0.0,False,2
5.9,-83.84295654296875,-15.633800506591797,0.038275737315416336,0.0003278490621596575,-179.1396026611328,0.0013506144750863314,-4.847597599029541,-0.06761118024587631,-6.483904826382059e-07,0.3593128025531769,-0.0015173479914665222,0.0,False,2
6.0,-84.32803344726562,-15.64056396484375,0.038272418081760406,0.0007308301865123212,-179.1594696044922,0.0015424391021952033,-4.854554176330566,-0.0651363804936409,-4.1954677953981445e-07,0.3710540235042572,-0.0017734459834173322,0.0,False,2
6.1000000000000005,-84.8141860961914,-15.6470947265625,0.038264140486717224,0.0017143774311989546,-179.18235778808594,0.001726066111586988,-4.866891860961914,-0.06248602271080017,-5.339686026673007e-07,0.3612818419933319,-0.0020267099607735872,0.0,False,2
6.2,-85.30152130126953,-15.653372764587402,0.038258761167526245,0.0023632452357560396,-179.20816040039062,0.0019055308075621724,-4.87722110748291,-0.05956372991204262,-4.1954677953981445e-07,0.3438170850276947,-0.002275650156661868,0.0,False,2
6.300000000000001,-85.78956604003906,-15.659368515014648,0.038259103894233704,0.002315433928743005,-179.23663330078125,0.0020561665296554565,-4.88179349899292,-0.056413114070892334,-1.6019057511584833e-06,0.332303524017334,-0.0025002979673445225,0.0,False,2
6.4,-86.2792739868164,-15.665058135986328,0.038248613476753235,0.0035653584636747837,-179.26849365234375,0.002280814340338111,-4.921909809112549,-0.05315210297703743,1.1442184444376835e-07,0.699999988079071,-0.0027876782696694136,0.0,False,2
6.5,-86.77849578857422,-15.670516967773438,0.03865155950188637,0.011044415645301342,-179.3035888671875,0.0025028912350535393,-5.051041603088379,-0.05085708200931549,0.012231085449457169,0.699999988079071,-0.0029570069164037704,0.0,False,2
6.6000000000000005,-87.28314208984375,-15.67570972442627,0.038938846439123154,0.009753509424626827,-179.33920288085938,0.00247752433642745,-5.054165363311768,-0.04764585569500923,0.003919596783816814,0.699999988079071,-0.0029963566921651363,0.0,False,2
6.7,-87.78712463378906,-15.68055534362793,0.03882547467947006,0.004876754712313414,-179.3757781982422,0.002452705055475235,-5.0433030128479,-0.04402240738272667,-0.013914649374783039,0.699999988079071,-0.003091333666816354,0.0,False,0
6.800000000000001,-88.29093933105469,-15.68500804901123,0.03891122713685036,0.0025544906966388226,-179.41537475585938,0.0026656845584511757,-5.035074710845947,-0.0396299846470356,-0.00024080077128019184,0.699999988079071,-0.003337845439091325,0.0,False,0
6.9,-88.7931900024414,-15.68906307220459,0.03869619220495224,0.0005464151035994291,-179.45687866210938,0.002740043681114912,-5.025547504425049,-0.035422664135694504,0.00221457751467824,0.699999988079071,-0.0034651062451303005,0.0,False,0
7.0,-89.29508209228516,-15.692646980285645,0.0387985035777092,4.0981132769957185e-05,-179.49118041992188,0.0028070006519556046,-5.0110764503479,-0.031091446056962013,0.0003735110512934625,0.699999988079071,-0.0035422546789050102,0.0,False,0
7.1000000000000005,-89.80516052246094,-15.696009635925293,0.038713015615940094,0.010347736068069935,-179.5417938232422,0.002957276999950409,-5.170413494110107,-0.028060108423233032,-0.0001398044259985909,0.699999988079071,-0.00358621496707201,0.0,False,0
7.2,-90.33965301513672,-15.699053764343262,0.03856813162565231,0.02545611374080181,-179.59156799316406,0.0033063373994082212,-5.403099060058594,-0.024594731628894806,-0.00017948973982129246,0.699999988079071,-0.0037279401440173388,0.0,False,3
7.300000000000001,-90.8960952758789,-15.701913833618164,0.03849492967128754,0.032498039305210114,-179.63592529296875,0.0027982061728835106,-5.618821144104004,-0.023766443133354187,-0.00011133244697703049,0.699999988079071,-0.003086983459070325,0.0,False,3
7.4,-91.47322845458984,-15.704582214355469,0.03846967592835426,0.034608565270900726,-179.67605590820312,0.002481701085343957,-5.824570178985596,-0.022091638296842575,-5.1585182518465444e-05,0.699999988079071,-0.002751539694145322,0.0,False,3
7.5,-92.07035064697266,-15.706917762756348,0.03846540302038193,0.034765660762786865,-179.7180938720703,0.002900433726608753,-6.024458885192871,-0.01807408407330513,-1.834563590819016e-05,0.699999988079071,-0.0029102691914886236,0.0,False,3
7.6000000000000005,-92.68701934814453,-15.70893383026123,0.03846795856952667,0.034376341849565506,-179.7589111328125,0.0029423385858535767,-6.220704078674316,-0.015241776593029499,-3.3754445212252904e-06,0.699999988079071,-0.002674461342394352,0.0,False,3
7.7,-93.32294464111328,-15.710625648498535,0.03847124055027962,0.03393920883536339,-179.79847717285156,0.002940715989097953,-6.414481163024902,-0.012012864463031292,-2.1740149804827524e-06,0.699999988079071,-0.0025350195355713367,0.0,False,3
7.800000000000001,-93.97793579101562,-15.711963653564453,0.038474444299936295,0.03359086811542511,-179.83740234375,0.002991556888446212,-6.6063995361328125,-0.008451193571090698,1.2586402817760245e-06,0.699999988079071,-0.002435022499412298,0.0,False,3
7.9,-94.65181732177734,-15.712982177734375,0.03847657889127731,0.03332449123263359,-179.87339782714844,0.00277852825820446,-6.796777248382568,-0.005738819483667612,7.628123199765469e-08,0.699999988079071,-0.0021441520657390356,0.0,False,3
8.0,-95.34442138671875,-15.713619232177734,0.03847844898700714,0.03311958536505699,-179.90968322753906,0.0029445113614201546,-6.985783100128174,-0.0015249797143042088,2.288436888875367e-07,0.699999988079071,-0.002184433164075017,0.0,False,3
8.1,-96.0556411743164,-15.713846206665039,0.03847978636622429,0.03295566141605377,-179.94606018066406,0.0030799424275755882,-7.173502445220947,0.0025997175835072994,-8.581638439864037e-07,0.699999988079071,-0.0021183688659220934,0.0,False,3
8.200000000000001,-96.78534698486328,-15.713704109191895,0.038481004536151886,0.03281905874609947,-179.97970581054688,0.0028739520348608494,-7.35998010635376,0.005782487336546183,-1.2014294270557002e-06,0.699999988079071,-0.001857738709077239,0.0,False,3
8.3,-97.53341674804688,-15.713200569152832,0.03848195821046829,0.03268928453326225,179.98870849609375,0.002737727016210556,-7.545231342315674,0.009324464946985245,5.14898317760526e-07,0.699999988079071,-0.0017236336134374142,0.0,False,3
8.4,-98.29974365234375,-15.712310791015625,0.03848302736878395,0.03257317095994949,179.95835876464844,0.002708139130845666,-7.729257106781006,0.01309061050415039,1.3158512501831865e-06,0.699999988079071,-0.0016312970547005534,0.0,False,3
8.5,-99.08419036865234,-15.711073875427246,0.03848401829600334,0.032463885843753815,179.9308319091797,0.0024926273617893457,-7.912045955657959,0.016110505908727646,7.818825906724669e-07,0.699999988079071,-0.0014058457454666495,0.0,False,3
8.6,-99.8824462890625,-15.709465026855469,0.038533344864845276,0.026569433510303497,179.904296875,0.0025102756917476654,-7.969772815704346,0.019793538376688957,-1.2014294270557002e-06,0.699999988079071,-0.001415999955497682,0.0,False,3
8.700000000000001,-100.68032836914062,-15.70754623413086,0.03864164277911186,0.013660377822816372,179.88084411621094,0.0022462820634245872,-7.9577155113220215,0.022284673526883125,2.326577487110626e-06,0.699999988079071,-0.0012327226577326655,0.0,False,0
8.8,-101.47675323486328,-15.705289840698242,0.03870927542448044,0.005614415276795626,179.85682678222656,0.002317326609045267,-7.943734645843506,0.026004483923316002,1.5637651813449338e-06,0.699999988079071,-0.0013502640649676323,0.0,False,0
8.9,-102.2717056274414,-15.702704429626465,0.038741931319236755,0.001734867924824357,179.83291625976562,0.0023016780614852905,-7.9290900230407715,0.029139768332242966,-1.0107263506142772e-06,0.699999988079071,-0.0013094304595142603,0.0,False,0
9.0,-103.06520080566406,-15.69981861114502,0.03875608369708061,4.781132156495005e-05,179.81015014648438,0.0021735222544521093,-7.914151668548584,0.031923312693834305,-1.5256246399530937e-07,0.699999988079071,-0.0012360464315861464,0.0,False,0
9.1,-103.86136627197266,-15.69664478302002,0.03871343657374382,0.0051294718869030476,179.7883758544922,0.0020359710324555635,-8.019609451293945,0.03500986844301224,-7.628123199765469e-08,0.699999988079071,-0.00115514500066638,0.0,False,0
9.200000000000001,-104.67379760742188,-15.693129539489746,0.0386127270758152,0.017130114138126373,179.76686096191406,0.0020119058899581432,-8.186205863952637,0.03839871659874916,7.818825906724669e-07,0.699999988079071,-0.001089197234250605,0.0,False,4
9.3,-105.50184631347656,-15.689306259155273,0.03856004774570465,0.02340022660791874,179.7477264404297,0.0018360801041126251,-8.33928108215332,0.04106496274471283,-3.2419524131910293e-07,0.699999988079071,-0.0009155328152701259,0.0,False,4
9.4,-106.34458923339844,-15.685187339782715,0.03854181244969368,0.02556539699435234,179.73037719726562,0.0017107801977545023,-8.485143661499023,0.04386945068836212,-5.14898317760526e-07,0.699999988079071,-0.0008325167000293732,0.0,False,4
9.5,-107.2015609741211,-15.680805206298828,0.038538072258234024,0.02600252814590931,179.71534729003906,0.0015109831001609564,-8.626983642578125,0.046155355870723724,-3.2419524131910293e-07,0.699999988079071,-0.0006869034259580076,0.0,False,4
9.600000000000001,-108.0724868774414,-15.676169395446777,0.03853902593255043,0.02587958611547947,179.701904296875,0.001380788628011942,-8.766390800476074,0.04855157434940338,-4.0047643778962083e-07,0.699999988079071,-0.000616798410192132,0.0,False,4
9.700000000000001,-108.95721435546875,-15.671284675598145,0.038540974259376526,0.02566101960837841,179.68954467773438,0.0012950256932526827,-8.90418815612793,0.050888556987047195,-6.674607675449806e-07,0.699999988079071,-0.0005555648822337389,0.0,False,4
9.8,-109.85562133789062,-15.666166305541992,0.038542576134204865,0.02546977438032627,179.67825317382812,0.001215179916471243,-9.040830612182617,0.05312877148389816,9.916559520206647e-07,0.699999988079071,-0.0004969453439116478,0.0,False,4
9.9,-110.76763153076172,-15.660839080810547,0.03854379430413246,0.025312678888440132,179.66885375976562,0.0010291840881109238,-9.17658519744873,0.054853226989507675,8.200231604860164e-07,0.699999988079071,-0.0003777573583647609,0.0,False,4
10.0,-111.69318389892578,-15.655303955078125,0.03854471072554588,0.025203397497534752,179.66004943847656,0.0009886226616799831,-9.311605453491211,0.05700654909014702,7.628123199765469e-08,0.699999988079071,-0.00037878507282584906,0.0,False,4
10.100000000000001,-112.63218688964844,-15.64955997467041,0.03854547441005707,0.025114603340625763,179.65182495117188,0.0009504279005341232,-9.445974349975586,0.058981478214263916,-6.102498559812375e-07,0.699999988079071,-0.0003390967031009495,0.0,False,4
10.200000000000001,-113.58456420898438,-15.643634796142578,0.03854623809456825,0.025039471685886383,179.64498901367188,0.0008107184548862278,-9.579728126525879,0.06053704023361206,-6.865310524517554e-07,0.699999988079071,-0.0002510616322979331,0.0,False,4
10.3,-114.55030822753906,-15.637540817260742,0.03854665532708168,0.024957509711384773,179.63925170898438,0.0006973944255150855,-9.712883949279785,0.06210241839289665,-9.916559520206647e-07,0.699999988079071,-0.00020814081653952599,0.0,False,4
10.4,-115.52933502197266,-15.63127326965332,0.03854719176888466,0.024896038696169853,179.63377380371094,0.0006804050644859672,-9.84544563293457,0.06385631114244461,5.530388875740755e-07,0.699999988079071,-0.00021021708380430937,0.0,False,4
10.5,-116.52159118652344,-15.62486457824707,0.03854772448539734,0.024834565818309784,179.62969970703125,0.0005253529525361955,-9.977426528930664,0.06496609002351761,-1.7163276311293885e-07,0.699999988079071,-0.00011006489512510598,0.0,False,4
10.600000000000001,-117.5270004272461,-15.618316650390625,0.0385482981801033,0.024766264483332634,179.6263427734375,0.0004550885932985693,-10.108820915222168,0.06634959578514099,-3.814061599882734e-08,0.699999988079071,-0.00010694446973502636,0.0,False,4
10.700000000000001,-118.54552459716797,-15.611635208129883,0.03854886814951897,0.024704793468117714,179.6234130859375,0.00040801663999445736,-10.23963737487793,0.06761416792869568,-4.386170644465892e-07,0.699999988079071,-8.295841689687222e-05,0.0,False,4
10.8,-119.57709503173828,-15.604828834533691,0.03854928910732269,0.024643320590257645,179.62106323242188,0.00034370578941889107,-10.369874000549316,0.06874654442071915,6.865310524517554e-07,0.699999988079071,-5.223324114922434e-05,0.0,False,4
10.9,-120.62165832519531,-15.59791374206543,0.03854982182383537,0.024575019255280495,179.61949157714844,0.00025489210383966565,-10.499532699584961,0.06971094757318497,-1.1823590284620877e-06,0.699999988079071,-1.4470773749053478e-05,0.0,False,4
11.0,-121.67914581298828,-15.59089469909668,0.03855031728744507,0.024513548240065575,179.61831665039062,0.0002100507845170796,-10.628618240356445,0.07074163109064102,3.432655262258777e-07,0.699999988079071,-8.474671631120145e-06,0.0,False,4
11.100000000000001,-122.7489242553711,-15.583782196044922,0.03855966404080391,0.02339339628815651,179.61769104003906,0.00014349681441672146,-10.722082138061523,0.07135415077209473,6.483904826382059e-07,0.699999988079071,2.1247135009616613e-05,0.0,False,4
11.200000000000001,-123.82024383544922,-15.576652526855469,0.03864267095923424,0.013503283262252808,179.61807250976562,6.720158125972375e-05,-10.704708099365234,0.0711994469165802,1.1442184444376835e-07,0.699999988079071,2.784465323202312e-05,0.0,False,0
11.3,-124.88948059082031,-15.569551467895508,0.03870721906423569,0.005805660504847765,179.61911010742188,-6.103515261202119e-05,-10.68391227722168,0.07077182084321976,1.7163276311293885e-07,0.699999988079071,5.566398613154888e-05,0.0,False,0
11.4,-125.95661926269531,-15.56248664855957,0.03874051943421364,0.001857811352238059,179.6204071044922,-0.00015258787607308477,-10.663060188293457,0.07039568573236465,1.029796635521052e-06,0.699999988079071,5.4517193348146975e-05,0.0,False,0
11.5,-127.0217056274414,-15.55545711517334,0.03875532001256943,0.00010245283192489296,179.62171936035156,-0.00018310545419808477,-10.642254829406738,0.07001373171806335,8.581638439864037e-07,0.699999988079071,5.4504082072526217e-05,0.0,False,0
11.600000000000001,-128.08514404296875,-15.548471450805664,0.03875475004315376,0.00016392453107982874,179.62326049804688,-0.000244140625,-10.64728832244873,0.06967628747224808,-3.0512492799061874e-07,0.699999988079071,7.213537173811346e-05,0.0,False,0
11.700000000000001,-129.15594482421875,-15.541475296020508,0.03868715092539787,0.008237207308411598,179.6245574951172,-0.00024414058134425431,-10.751107215881348,0.07000083476305008,6.674607675449806e-07,0.699999988079071,8.327113755512983e-05,0.0,False,5
11.8,-130.23721313476562,-15.534442901611328,0.03863309696316719,0.014684906229376793,179.6258087158203,-0.00021362306142691523,-10.856188774108887,0.07039578258991241,3.2419524131910293e-07,0.699999988079071,8.695738506503403e-05,0.0,False,5
11.9,-131.32899475097656,-15.527372360229492,0.038604944944381714,0.01801803894340992,179.62734985351562,-0.00021362303232308477,-10.961322784423828,0.07070159167051315,-2.1740149804827524e-06,0.699999988079071,0.00010351954551879317,0.0,False,5
12.0,-132.43125915527344,-15.520272254943848,0.03859258443117142,0.019507018849253654,179.6291961669922,-0.00021362301777116954,-11.066274642944336,0.0709739550948143,-3.0512492799061874e-07,0.699999988079071,0.00011358605115674436,0.0,False,5
12.100000000000001,-133.5439910888672,-15.513142585754395,0.03858751058578491,0.020114906132221222,179.6312255859375,-0.00021362301777116954,-11.170928955078125,0.07124333083629608,-1.0107263506142772e-06,0.699999988079071,0.0001162029366241768,0.0,False,5
12.200000000000001,-134.6671600341797,-15.505990028381348,0.03858541324734688,0.02034030295908451,179.63345336914062,-0.00024414058134425431,-11.275238990783691,0.07142001390457153,4.1954677953981445e-07,0.699999988079071,0.00012823843280784786,0.0,False,5
12.3,-135.80075073242188,-15.498819351196289,0.03858495503664017,0.02040860429406166,179.63592529296875,-0.00027465823222883046,-11.379176139831543,0.0715782418847084,-1.1442184444376835e-07,0.699999988079071,0.00013270502677187324,0.0,False,5
12.4,-136.9447021484375,-15.491631507873535,0.03858491778373718,0.02040860429406166,179.63848876953125,-0.0003051757230423391,-11.482545852661133,0.07171028852462769,9.916559520206647e-07,0.6978428959846497,0.00013556300837080926,0.0,False,5
12.5,-138.09890747070312,-15.484432220458984,0.038585834205150604,0.02031298168003559,179.6410675048828,-0.00030517569393850863,-11.584256172180176,0.0718282088637352,-7.437419640154985e-07,0.6863095164299011,0.00013508361007552594,0.0,False,5
12.600000000000001,-139.2631072998047,-15.47722339630127,0.038588009774684906,0.020053435117006302,179.6438751220703,-0.0003356933011673391,-11.682952880859375,0.07182907313108444,2.479139880051662e-07,0.6749277710914612,0.0001462874497519806,0.0,False,5
12.700000000000001,-140.43698120117188,-15.470014572143555,0.038591478019952774,0.019636793062090874,179.64675903320312,-0.0003662109375,-11.77806282043457,0.07183229178190231,2.479139880051662e-07,0.6642318964004517,0.00014408063725568354,0.0,False,5
12.8,-141.62014770507812,-15.462810516357422,0.03859582915902138,0.019117698073387146,179.64974975585938,-0.00039672854472883046,-11.869451522827148,0.07176239043474197,1.4493433582174475e-06,0.6544956564903259,0.00014783471124246716,0.0,False,5
12.9,-142.81224060058594,-15.455615043640137,0.03860063478350639,0.018557623028755188,179.6528778076172,-0.00042724609375,-11.95721435546875,0.0716448575258255,-1.106077775148151e-06,0.6454300284385681,0.00014986061432864517,0.0,False,5
13.0,-144.01292419433594,-15.448431015014648,0.038605403155088425,0.017990717664361,179.65602111816406,-0.0004272460355423391,-12.041507720947266,0.07149425894021988,-8.200231604860164e-07,0.6368481516838074,0.0001496217882959172,0.0,False,5
13.100000000000001,-145.22181701660156,-15.441265106201172,0.038609981536865234,0.017437471076846123,179.65927124023438,-0.00042724609375,-12.122481346130371,0.07130204886198044,-1.7163276311293885e-07,0.6286336779594421,0.00015003877342678607,0.0,False,5
13.200000000000001,-146.43862915039062,-15.43411922454834,0.038614291697740555,0.016897886991500854,179.66253662109375,-0.0004272460355423391,-12.20028018951416,0.0710882917046547,-2.6698430133365036e-07,0.6207424998283386,0.00014819085481576622,0.0,False,5
13.3,-147.66302490234375,-15.42699909210205,0.038618870079517365,0.016378792002797127,179.6658172607422,-0.00045776370097883046,-12.275038719177246,0.07080598920583725,-9.153747555501468e-07,0.6131603717803955,0.0001521843660157174,0.0,False,5
13.4,-148.8947296142578,-15.419905662536621,0.038622912019491196,0.015880189836025238,179.66915893554688,-0.00045776370097883046,-12.346878051757812,0.07052559405565262,-2.6698430133365036e-07,0.6058720350265503,0.00014860808732919395,0.0,False,5
13.5,-150.13348388671875,-15.41284465789795,0.03862691670656204,0.015402075834572315,179.6725616455078,-0.000457763671875,-12.415913581848145,0.07017974555492401,1.735397972879582e-06,0.5988677740097046,0.00015206527314148843,0.0,False,5
13.600000000000001,-151.37896728515625,-15.405815124511719,0.03863084688782692,0.014937622472643852,179.67584228515625,-0.0004577636136673391,-12.482257843017578,0.06988003849983215,-1.6781871181592578e-06,0.5921396017074585,0.00014276683214120567,0.0,False,5
13.700000000000001,-152.6309356689453,-15.398823738098145,0.03863447159528732,0.014493661001324654,179.67922973632812,-0.00048828122089616954,-12.5460205078125,0.0694703683257103,4.386170644465892e-07,0.5856771469116211,0.00015099227312020957,0.0,False,5
13.8,-153.8891143798828,-15.39186954498291,0.03863801807165146,0.014070188626646996,179.6826629638672,-0.00048828122089616954,-12.607297897338867,0.06906742602586746,2.040522986135329e-06,0.579468846321106,0.00014860808732919395,0.0,False,5
13.9,-155.15328979492188,-15.38495922088623,0.03864160552620888,0.013667208142578602,179.68614196777344,-0.00048828107537701726,-12.666192054748535,0.06861969828605652,-8.390935590796289e-07,0.5735039710998535,0.0001503366802353412,0.0,False,5
14.0,-156.42324829101562,-15.378093719482422,0.038644809275865555,0.013277887366712093,179.68966674804688,-0.00048828116268850863,-12.722798347473145,0.06814467161893845,9.535153111528416e-08,0.5677773952484131,0.00015087323845364153,0.0,False,5
14.100000000000001,-157.69869995117188,-15.3712797164917,0.03864793851971626,0.01290222629904747,179.69332885742188,-0.0005187986535020173,-12.777206420898438,0.06761499494314194,-1.106077775148151e-06,0.5622740983963013,0.00015486704069189727,0.0,False,5
14.200000000000001,-158.9794921875,-15.364520072937012,0.038650911301374435,0.012540226802229881,179.69703674316406,-0.0005187986535020173,-12.829507827758789,0.0670691430568695,-1.620976036065258e-06,0.5569881796836853,0.00015474825340788811,0.0,False,5
14.3,-160.265380859375,-15.357815742492676,0.038653962314128876,0.012198717333376408,179.70077514648438,-0.0005187985952943563,-12.879778861999512,0.06649069488048553,-8.581638439864037e-07,0.5519095659255981,0.0001558216754347086,0.0,False,5
14.4,-161.55618286132812,-15.351167678833008,0.03865663334727287,0.011870868504047394,179.7045135498047,-0.0005187987699173391,-12.928101539611816,0.06590912491083145,-4.386170644465892e-07,0.5470298528671265,0.00015343804261647165,0.0,False,5
14.5,-162.85171508789062,-15.344582557678223,0.03865941986441612,0.011556679382920265,179.70831298828125,-0.000518798828125,-12.974555015563965,0.06527478992938995,1.6400463209720328e-06,0.5423451662063599,0.00015689575229771435,0.0,False,5
14.600000000000001,-164.1517791748047,-15.338061332702637,0.03866201266646385,0.011249320581555367,179.71224975585938,-0.0005493161734193563,-13.019213676452637,0.06459154188632965,-9.153747555501468e-07,0.5378444194793701,0.0001614266075193882,0.0,False,5
14.700000000000001,-165.45619201660156,-15.331608772277832,0.03866441547870636,0.010955622419714928,179.71620178222656,-0.0005493163480423391,-13.06214427947998,0.06391944736242294,3.8140612446113664e-07,0.5335193872451782,0.00015838771651033312,0.0,False,5
14.8,-166.7648162841797,-15.325222969055176,0.03866678103804588,0.010675584897398949,179.7201690673828,-0.0005493164644576609,-13.103425979614258,0.06323020905256271,2.6698430133365036e-07,0.5293646454811096,0.00015719656948931515,0.0,False,5
14.9,-168.07748413085938,-15.318909645080566,0.038669031113386154,0.0104023776948452,179.72418212890625,-0.0005493163480423391,-13.143112182617188,0.0624934621155262,2.7270539249002468e-06,0.5253753662109375,0.0001606547157280147,0.0,False,5
15.0,-169.39401245117188,-15.312667846679688,0.03867135941982269,0.010142830200493336,179.72824096679688,-0.0005493162898346782,-13.181272506713867,0.06175065040588379,-1.4302730733106728e-06,0.5215374231338501,0.00016000019968487322,0.0,False,5
15.100000000000001,-170.71429443359375,-15.30650520324707,0.03867338225245476,0.009890113025903702,179.73233032226562,-0.0005493163480423391,-13.217962265014648,0.06097182631492615,1.5256246399530937e-07,0.5178561806678772,0.0001622664276510477,0.0,False,5
15.200000000000001,-172.0381622314453,-15.300416946411133,0.03867544233798981,0.009651056490838528,179.73646545410156,-0.0005493165226653218,-13.253244400024414,0.060185130685567856,1.6781871181592578e-06,0.5143163800239563,0.00016161208623088896,0.0,False,5
15.3,-173.36546325683594,-15.294411659240723,0.038677461445331573,0.009418830275535583,179.7406463623047,-0.0005493165226653218,-13.287171363830566,0.059376876801252365,-1.1823590284620877e-06,0.5109182596206665,0.00016214989591389894,0.0,False,5
15.4,-174.6960906982422,-15.288487434387207,0.03867929428815842,0.0092002646997571,179.74484252929688,-0.0005493162898346782,-13.319798469543457,0.058549921959638596,-8.581638439864037e-07,0.507651686668396,0.00016268777835648507,0.0,False,5
15.5,-176.02989196777344,-15.28264331817627,0.03868101164698601,0.00898852851241827,179.7490234375,-0.00054931640625,-13.351175308227539,0.057718418538570404,5.7210922221884175e-08,0.5045143365859985,0.00016149711154866964,0.0,False,5
15.600000000000001,-177.36679077148438,-15.276887893676758,0.03868265077471733,0.008783622644841671,179.7532958984375,-0.0005493163480423391,-13.381351470947266,0.05684427544474602,-1.2777105666827993e-06,0.5014996528625488,0.0001649557234486565,0.0,False,5
15.700000000000001,-178.7066192626953,-15.27121639251709,0.03868444263935089,0.008585547097027302,179.7574920654297,-0.0005493164644576609,-13.41037368774414,0.05600807070732117,2.479139880051662e-07,0.49860459566116333,0.00015911590890027583,0.0,False,5
15.8,-180.04931640625,-15.265629768371582,0.038685739040374756,0.008401132188737392,179.76168823242188,-0.00054931640625,-13.438288688659668,0.05514304339885712,8.96304470643372e-07,0.49582207202911377,0.0001597729278728366,0.0,False,5
15.9,-181.3946990966797,-15.260129928588867,0.03868741914629936,0.008223547600209713,179.7659454345703,-0.00054931640625,-13.465137481689453,0.05424564704298973,4.1954677953981445e-07,0.49315035343170166,0.00016269499610643834,0.0,False,5
16.0,-182.74273681640625,-15.254719734191895,0.038688983768224716,0.008052792400121689,179.77023315429688,-0.0005493163480423391,-13.490966796875,0.05335181578993797,-3.623358395543619e-07,0.49058330059051514,0.0001615043292986229,0.0,False,5
16.1,-184.09327697753906,-15.249396324157715,0.03869020193815231,0.00788886845111847,179.7744140625,-0.0005493162898346782,-13.515812873840332,0.05248429998755455,2.6507727852731477e-06,0.48811769485473633,0.00015631997666787356,0.0,False,5
16.2,-185.44625854492188,-15.244168281555176,0.03869172930717468,0.007731773890554905,179.7786102294922,-0.0005493163480423391,-13.539713859558105,0.05156956613063812,-1.1251480600549257e-06,0.48574599623680115,0.00015989750681910664,0.0,False,5
16.3,-186.8015899658203,-15.239027976989746,0.03869298845529556,0.0075815096497535706,179.7827911376953,-0.0005493164644576609,-13.562708854675293,0.05067947134375572,-5.721092293242691e-07,0.4834708869457245,0.0001564415724715218,0.0,False,5
16.400000000000002,-188.15914916992188,-15.233975410461426,0.03869424760341644,0.007438075728714466,179.78695678710938,-0.0005493163480423391,-13.584834098815918,0.049768585711717606,-8.96304470643372e-07,0.4812847971916199,0.00015709828585386276,0.0,False,5
16.5,-189.5189208984375,-15.229019165039062,0.038695428520441055,0.007294641807675362,179.79112243652344,-0.0005493163480423391,-13.606124877929688,0.04886830598115921,-5.339686026673007e-07,0.4791838526725769,0.000154834269778803,0.0,False,5
16.6,-190.88072204589844,-15.224149703979492,0.038696497678756714,0.0071580377407372,179.7952880859375,-0.0005493163480423391,-13.626609802246094,0.047950632870197296,-1.1442184586485382e-06,0.47716522216796875,0.00015549080853816122,0.0,False,5
16.7,-192.2445526123047,-15.21937370300293,0.038697682321071625,0.007028264459222555,179.79945373535156,-0.00054931640625,-13.646324157714844,0.047030799090862274,-3.623358395543619e-07,0.47522470355033875,0.00015495521074626595,0.0,False,5
16.8,-193.61029052734375,-15.214688301086426,0.03869863599538803,0.006905321031808853,179.80357360839844,-0.00054931640625,-13.665291786193848,0.046120237559080124,2.7461242098070215e-06,0.4733628034591675,0.0001526909472886473,0.0,False,5
16.900000000000002,-194.9779052734375,-15.21009635925293,0.03869981691241264,0.006782377604395151,179.8076934814453,-0.0005493162898346782,-13.683547973632812,0.045193418860435486,-4.576873777750734e-07,0.47157299518585205,0.00015334725321736187,0.0,False,5
17.0,-196.34730529785156,-15.205594062805176,0.038700733333826065,0.006666264496743679,179.811767578125,-0.00054931640625,-13.701120376586914,0.04430592060089111,3.261022357037291e-06,0.4698560833930969,0.000147625629324466,0.0,False,5
17.1,-197.71841430664062,-15.201186180114746,0.03870176151394844,0.00655698124319315,179.81590270996094,-0.0005493164644576609,-13.718034744262695,0.04332491382956505,-1.3349215066682518e-07,0.4682048261165619,0.0001575802016304806,0.0,False,5
17.2,-199.09117126464844,-15.19687557220459,0.038702599704265594,0.00644769798964262,179.82020568847656,-0.0005798338679596782,-13.734314918518066,0.04232955724000931,3.165670932503417e-06,0.4666176438331604,0.00016091889119707048,0.0,False,5
17.3,-200.4654998779297,-15.192671775817871,0.038703553378582,0.006345245521515608,179.82489013671875,-0.000640869140625,-13.74998950958252,0.0411795973777771,-1.1442184586485382e-06,0.465093731880188,0.00018035167886409909,0.0,False,5
17.400000000000002,-201.8413848876953,-15.18858814239502,0.038704317063093185,0.006249622907489538,179.83023071289062,-0.0007324218167923391,-13.765080451965332,0.03985783830285072,1.4684136431242223e-06,0.46363142132759094,0.00020515031064860523,0.0,False,5
17.5,-203.21875,-15.184639930725098,0.03870523348450661,0.0061540002934634686,179.8362274169922,-0.0008239743183366954,-13.779610633850098,0.038379035890102386,-1.5256244978445466e-06,0.46222394704818726,0.0002284010115545243,0.0,False,5
17.6,-204.5975799560547,-15.180843353271484,0.03870595991611481,0.006058377679437399,179.84288024902344,-0.00091552734375,-13.793601036071777,0.03674950823187828,-2.479139880051662e-07,0.4608742594718933,0.0002496867091394961,0.0,False,5
17.7,-205.97769165039062,-15.177215576171875,0.03870668262243271,0.005969584919512272,179.8502197265625,-0.0010375974234193563,-13.807073593139648,0.03492336720228195,1.0488669204278267e-06,0.45957621932029724,0.00027604110073298216,0.0,False,5
17.8,-207.35916137695312,-15.173773765563965,0.03870733082294464,0.005887622945010662,179.8583526611328,-0.0011596678523346782,-13.820049285888672,0.032914262264966965,-6.102498559812375e-07,0.45833054184913635,0.00030162304756231606,0.0,False,5
17.900000000000002,-208.74188232421875,-15.170530319213867,0.03870813176035881,0.005805660504847765,179.86692810058594,-0.0012512205867096782,-13.83254623413086,0.03085494600236416,-1.2014294270557002e-06,0.4571344554424286,0.00030980241717770696,0.0,False,5
18.0,-210.1258544921875,-15.167481422424316,0.03870874270796776,0.005730528384447098,179.87515258789062,-0.0012512205867096782,-13.844582557678223,0.029034318402409554,-6.483904826382059e-07,0.4559839367866516,0.0002773912565317005,0.0,False,5
18.1,-211.510986328125,-15.164605140686035,0.038709353655576706,0.005655396264046431,179.8824005126953,-0.0011596678523346782,-13.85617733001709,0.02748875319957733,-1.106077775148151e-06,0.4548800587654114,0.00023287898511625826,0.0,False,5
18.2,-212.8972625732422,-15.161876678466797,0.038710080087184906,0.005580264143645763,179.88839721679688,-0.0010070799617096782,-13.86734676361084,0.026212600991129875,-8.009528755792417e-07,0.45381924510002136,0.0001894371525850147,0.0,False,5
18.3,-214.28463745117188,-15.159271240234375,0.038710612803697586,0.005511962343007326,179.89315795898438,-0.0008239744929596782,-13.878108978271484,0.02522127889096737,-1.0488669204278267e-06,0.4528001546859741,0.00014670741802547127,0.0,False,5
18.400000000000002,-215.67308044433594,-15.156769752502441,0.038711223751306534,0.005443660542368889,179.89718627929688,-0.0007019041804596782,-13.888481140136719,0.024278685450553894,2.4791399937384995e-06,0.45182207226753235,0.00013556558405980468,0.0,False,5
18.5,-217.06251525878906,-15.15435791015625,0.03871171921491623,0.005382188595831394,179.9008026123047,-0.0006103514460846782,-13.898472785949707,0.023436950519680977,-8.200231604860164e-07,0.4508816599845886,0.00012460041034501046,0.0,False,5
18.6,-218.4529266357422,-15.1520357131958,0.038712289184331894,0.005320717114955187,179.90431213378906,-0.0005493163480423391,-13.908103942871094,0.02256081812083721,-9.916559520206647e-07,0.44997790455818176,0.0001294887624680996,0.0,False,5
18.7,-219.8448944091797,-15.149800300598145,0.03870614990592003,0.006051547359675169,179.90789794921875,-0.0005187986535020173,-13.933347702026367,0.021690327674150467,-1.5256246399530937e-07,0.699999988079071,0.00013485323870554566,0.0,False,5
18.8,-221.24148559570312,-15.147653579711914,0.038680627942085266,0.00908415112644434,179.91148376464844,-0.0005187986535020173,-13.992104530334473,0.02083132229745388,-1.163288743555313e-06,0.699999988079071,0.00014433026080951095,0.0,False,5
18.900000000000002,-222.64503479003906,-15.14558219909668,0.038651369512081146,0.012581207789480686,179.9148712158203,-0.00048828116268850863,-14.067999839782715,0.020117659121751785,2.3837885692046257e-06,0.699999988079071,0.00013503133959602565,0.0,False,5
19.0,-224.0567169189453,-15.143572807312012,0.03862821310758591,0.015320113860070705,179.9176025390625,-0.0003967284574173391,-14.152291297912598,0.019650841131806374,-8.009528755792417e-07,0.699999988079071,0.00010594223567750305,0.0,False,5
19.1,-225.47708129882812,-15.141607284545898,0.03861306980252266,0.017123283818364143,179.919677734375,-0.000274658203125,-14.240632057189941,0.019328568130731583,-1.5256244978445466e-06,0.699999988079071,8.465950668323785e-05,0.0,False,5
19.200000000000003,-226.90640258789062,-15.139666557312012,0.03860402852296829,0.0181956235319376,179.9208526611328,-0.00012207029067212716,-14.33083724975586,0.01927720569074154,-5.339686026673007e-07,0.699999988079071,4.9188194680027664e-05,0.0,False,5
19.3,-228.34481811523438,-15.137722969055176,0.038599032908678055,0.018789850175380707,179.9209747314453,3.975857180193998e-05,-14.421812057495117,0.019486678764224052,-9.344450404569216e-07,0.699999988079071,1.2700256775133312e-05,0.0,False,5
19.400000000000002,-229.7803497314453,-15.135762214660645,0.03872678801417351,0.0035585283767431974,179.9209747314453,0.0001958833308890462,-14.203980445861816,0.01950743794441223,-1.106077775148151e-06,0.0,-2.516245876904577e-05,1.0,False,5
19.5,-231.1512451171875,-15.133834838867188,0.039243679493665695,-0.058015622198581696,179.92416381835938,0.00012787697778549045,-13.29086685180664,0.018475588411092758,-1.620976036065258e-06,0.0,-6.678467616438866e-05,0.8909409642219543,False,5
19.6,-232.4227752685547,-15.132027626037598,0.03969835117459297,-0.11212437599897385,179.93017578125,-0.00021362301777116954,-12.330928802490234,0.016843469813466072,-1.220499711962475e-06,0.0,-0.00011055756476707757,0.7105964422225952,False,5
19.700000000000003,-233.6199951171875,-15.130382537841797,0.0397077351808548,-0.11324453353881836,179.93252563476562,-0.0004577636136673391,-11.866988182067871,0.015920955687761307,3.6996395920141367e-06,0.38995906710624695,-0.00022145085677038878,0.0,False,5
19.8,-234.8035125732422,-15.128795623779297,0.03932413086295128,-0.06750275939702988,179.92738342285156,-0.000152587890625,-11.819661140441895,0.016594182699918747,7.342068329307949e-06,0.5865998864173889,-0.0003099397290498018,0.0,False,5
19.900000000000002,-235.9853515625,-15.127100944519043,0.039022233337163925,-0.03152132034301758,179.9186553955078,0.0005181897431612015,-11.813081741333008,0.01837211474776268,2.784264779620571e-06,0.3260115683078766,-0.00038603824214078486,0.0,False,5
20.0,-237.16534423828125,-15.125218391418457,0.03887456655502319,-0.013919924385845661,179.9083709716797,0.0011076934169977903,-11.78211498260498,0.02051246166229248,-1.8307495111002936e-06,0.048438917845487595,-0.0004249498888384551,0.0,False,5
20.1,-238.33993530273438,-15.123116493225098,0.03883413225412369,-0.009125132113695145,179.89712524414062,0.0015134414425119758,-11.715868949890137,0.022915754467248917,3.814061599882734e-08,0.021617494523525238,-0.00047429848928004503,0.0,False,5
20.200000000000003,-239.50686645507812,-15.12076473236084,0.03883550688624382,-0.009336868301033974,179.88462829589844,0.0018046952318400145,-11.635205268859863,0.02560635656118393,-1.220499711962475e-06,0.04364258795976639,-0.0005382566596381366,0.0,False,5
20.3,-240.66555786132812,-15.11815357208252,0.03884321078658104,-0.01028626412153244,179.87112426757812,0.0019868516828864813,-11.553292274475098,0.028361262753605843,-6.483904826382059e-07,0.0791877806186676,-0.0005755176534876227,0.0,False,5
20.400000000000002,-241.8162841796875,-15.115253448486328,0.03884610906243324,-0.010620943270623684,179.8561248779297,0.002184435958042741,-11.475544929504395,0.03152075782418251,-1.9833119040413294e-06,0.10290047526359558,-0.0006495612324215472,0.0,False,5
20.5,-242.9595489501953,-15.112045288085938,0.038843896239995956,-0.01037505641579628,179.8398895263672,0.002344530774280429,-11.402677536010742,0.03475922718644142,1.7544682577863568e-06,0.11780309677124023,-0.0006890995427966118,0.0,False,5
20.6,-244.09579467773438,-15.10850715637207,0.03883947432041168,-0.009855962358415127,179.8224639892578,0.002506585791707039,-11.334015846252441,0.03825928643345833,-5.911795142310439e-07,0.12828096747398376,-0.0007434853469021618,0.0,False,5
20.700000000000003,-245.22537231445312,-15.104636192321777,0.03883443772792816,-0.009248076006770134,179.8046417236328,0.002572458703070879,-11.268852233886719,0.041580043733119965,1.4684136431242223e-06,0.13743382692337036,-0.0007413699058815837,0.0,False,5
20.8,-246.3485870361328,-15.100411415100098,0.03882959112524986,-0.008667510002851486,179.78582763671875,0.002701828256249428,-11.206771850585938,0.045334119349718094,-1.2586402817760245e-06,0.14633212983608246,-0.0008067915332503617,0.0,False,5
20.900000000000002,-247.46578979492188,-15.095817565917969,0.0388249009847641,-0.008148415014147758,179.76596069335938,0.002823880175128579,-11.147561073303223,0.049155790358781815,-1.163288743555313e-06,0.1551186442375183,-0.0008433096227236092,0.0,False,5
21.0,-248.57884216308594,-15.090853691101074,0.03880613297224045,-0.00586030213162303,179.74598693847656,0.0028434935957193375,-11.121647834777832,0.052860502153635025,-1.792608941286744e-06,0.16366271674633026,-0.0008218348957598209,0.0,False,5
21.1,-249.6897430419922,-15.085419654846191,0.038785722106695175,-0.0034492453560233116,179.72189331054688,0.0033342763781547546,-11.099679946899414,0.05857092887163162,-1.5065542129377718e-06,0.17186273634433746,-0.0010933877201750875,0.0,False,0
21.200000000000003,-250.7984161376953,-15.079320907592773,0.038774508982896805,-0.0021378491073846817,179.6887664794922,0.004429824650287628,-11.077804565429688,0.06691169738769531,-1.1442184444376835e-07,0.15349362790584564,-0.0015545664355158806,0.0,False,0
21.3,-251.90493774414062,-15.072294235229492,0.03876955062150955,-0.0015299622900784016,179.6422119140625,0.006105488166213036,-11.05594539642334,0.07861147820949554,-7.628123199765469e-08,0.1545642614364624,-0.0021883982699364424,0.0,False,0
21.400000000000002,-253.00927734375,-15.06397819519043,0.03876737505197525,-0.0012840754352509975,179.57763671875,0.008400619961321354,-11.034079551696777,0.09467070549726486,-7.818825906724669e-07,0.15825551748275757,-0.0030257755424827337,0.0,False,0
21.5,-254.1045379638672,-15.054003715515137,0.03882905840873718,-0.008640188723802567,179.49171447753906,0.011191710829734802,-10.886645317077637,0.11443021148443222,-1.5256246399530937e-07,0.16198433935642242,-0.004089248366653919,0.0,False,0
21.6,-255.18603515625,-15.041836738586426,0.038877468556165695,-0.01440486777573824,179.37649536132812,0.014934389851987362,-10.768654823303223,0.14170525968074799,-4.958279760103323e-07,0.16570866107940674,-0.005550028290599585,0.0,False,4
21.700000000000003,-256.25775146484375,-15.027012825012207,0.038877733051776886,-0.014432189054787159,179.23486328125,0.018307296559214592,-10.685608863830566,0.17203134298324585,-1.5828354662517086e-06,0.2770408093929291,-0.0065226308070123196,0.0,False,4
21.8,-257.3228759765625,-15.008831024169922,0.038853395730257034,-0.011536188423633575,179.05816650390625,0.02275865338742733,-10.628541946411133,0.21210794150829315,-1.9070306223056832e-07,0.27696511149406433,-0.008302472531795502,0.0,False,4
21.900000000000002,-258.3830261230469,-14.98666000366211,0.038828372955322266,-0.008544566109776497,178.84658813476562,0.027170006185770035,-10.582342147827148,0.2571658790111542,1.1442184444376835e-07,0.26712167263031006,-0.009715588763356209,0.0,False,4
22.0,-259.4388427734375,-14.95991325378418,0.038811396807432175,-0.006529660429805517,178.6017303466797,0.031470026820898056,-10.539281845092773,0.30816540122032166,3.814061599882734e-08,0.2588178515434265,-0.011178621090948582,0.0,False,4
22.1,-260.49029541015625,-14.927895545959473,0.03880228102207184,-0.005436830222606659,178.3189697265625,0.03628207743167877,-10.496695518493652,0.367191880941391,-1.8879603658206179e-06,0.25896990299224854,-0.012976616621017456,0.0,False,4
22.200000000000003,-261.5375671386719,-14.89013385772705,0.0387972816824913,-0.004849433898925781,178.00625610351562,0.04013896360993385,-10.454826354980469,0.42850255966186523,1.163288743555313e-06,0.2637553811073303,-0.014077686704695225,0.0,False,4
22.3,-262.5807800292969,-14.846083641052246,0.03879423066973686,-0.004487433936446905,177.66250610351562,0.044111721217632294,-10.413968086242676,0.4965877830982208,5.14898317760526e-07,0.2700847387313843,-0.015590780414640903,0.0,False,4
22.400000000000002,-263.6200256347656,-14.795430183410645,0.03879140689969063,-0.004152754787355661,177.29689025878906,0.04690003767609596,-10.374773979187012,0.5650815367698669,9.535153822071152e-07,0.2761152982711792,-0.016317404806613922,0.0,False,4
22.5,-264.6554260253906,-14.737759590148926,0.03878862410783768,-0.0038180756382644176,176.90737915039062,0.04990188777446747,-10.336884498596191,0.6394365429878235,1.9070306223056832e-07,0.2814769744873047,-0.017562784254550934,0.0,False,4
22.6,-265.6871643066406,-14.67270565032959,0.038785722106695175,-0.0034833962563425303,176.4953155517578,0.05264010652899742,-10.30032730102539,0.7163898944854736,-1.3730621049035108e-06,0.28616639971733093,-0.018510978668928146,0.0,False,4
22.700000000000003,-266.71539306640625,-14.600203514099121,0.038782861083745956,-0.0031418867874890566,176.07373046875,0.053859893232584,-10.265303611755371,0.7913409471511841,-1.0679372053346015e-06,0.2904987037181854,-0.018681129440665245,0.0,False,4
22.8,-267.7402038574219,-14.520197868347168,0.03878030553460121,-0.0028413585387170315,175.64657592773438,0.05455078184604645,-10.231416702270508,0.8671782612800598,5.339686026673007e-07,0.29452255368232727,-0.018975388258695602,0.0,False,4
22.900000000000002,-268.7616882324219,-14.432381629943848,0.03877774998545647,-0.0025339999701827765,175.20379638671875,0.05631273239850998,-10.198041915893555,0.9483668804168701,1.1442184586485382e-06,0.2982689440250397,-0.019960254430770874,0.0,False,4
23.0,-269.7799072265625,-14.336669921875,0.03877534717321396,-0.0022607925347983837,174.75198364257812,0.05729891359806061,-10.165773391723633,1.0277477502822876,-8.200231604860164e-07,0.30184298753738403,-0.02014731615781784,0.0,False,4
23.1,-270.7950134277344,-14.233076095581055,0.03877313435077667,-0.0019875848665833473,174.29727172851562,0.05762318894267082,-10.134390830993652,1.1067084074020386,-7.628123199765469e-08,0.3052724599838257,-0.020248595625162125,0.0,False,4
23.200000000000003,-271.8070068359375,-14.12143325805664,0.03877115249633789,-0.0017416981281712651,173.83370971679688,0.0585818737745285,-10.103312492370605,1.1889923810958862,-1.5065542129377718e-06,0.30842405557632446,-0.02085484005510807,0.0,False,4
23.3,-272.81597900390625,-14.001619338989258,0.03876931965351105,-0.001495811389759183,173.36141967773438,0.05950858071446419,-10.072782516479492,1.27168869972229,-1.8498197960070684e-06,0.3113952577114105,-0.02121693268418312,0.0,False,4
23.400000000000002,-273.822021484375,-13.873943328857422,0.03876737505197525,-0.0012840754352509975,172.8988800048828,0.058303143829107285,-10.043831825256348,1.3472977876663208,-1.106077775148151e-06,0.3142399787902832,-0.020369652658700943,0.0,False,4
23.5,-274.8251953125,-13.738317489624023,0.03876554220914841,-0.001072339597158134,172.43446350097656,0.05843663588166237,-10.01456069946289,1.428419589996338,-5.14898317760526e-07,0.31688305735588074,-0.020933298394083977,0.0,False,4
23.6,-275.8254699707031,-13.594701766967773,0.038763903081417084,-0.0008879245724529028,171.96685791015625,0.05861706659197807,-9.985905647277832,1.5081735849380493,1.7163276879728073e-06,0.3192742168903351,-0.02097977139055729,0.0,False,4
23.700000000000003,-276.8229675292969,-13.442997932434082,0.038762416690588,-0.0007035094313323498,171.49269104003906,0.059312306344509125,-9.95716381072998,1.5903730392456055,5.7210922221884175e-08,0.3216685354709625,-0.021430986002087593,0.0,False,4
23.8,-277.8176574707031,-13.283329963684082,0.03876092657446861,-0.0005190943484194577,171.02139282226562,0.05889520421624184,-9.929412841796875,1.6685314178466797,4.1954677953981445e-07,0.32384970784187317,-0.02104690670967102,0.0,False,4
23.900000000000002,-278.80963134765625,-13.115856170654297,0.038759518414735794,-0.00036883019492961466,170.55690002441406,0.05804029107093811,-9.902145385742188,1.7454509735107422,-7.437419640154985e-07,0.32594823837280273,-0.020765522494912148,0.0,False,4
24.0,-279.7989196777344,-12.940632820129395,0.038758259266614914,-0.00021856604143977165,170.09580993652344,0.05750765651464462,-9.875041007995605,1.822574257850647,1.353991819996736e-06,0.3278343081474304,-0.020719390362501144,0.0,False,4
24.1,-280.7854919433594,-12.757513999938965,0.038757000118494034,-6.147169915493578e-05,169.62850952148438,0.05810555815696716,-9.847402572631836,1.9029510021209717,2.0977338976990723e-07,0.3296399712562561,-0.021229740232229233,0.0,False,4
24.200000000000003,-281.7693786621094,-12.566569328308105,0.03875577822327614,7.51320767449215e-05,169.16131591796875,0.05800466611981392,-9.820465087890625,1.9803375005722046,5.7210922221884175e-08,0.33135735988616943,-0.021013332530856133,0.0,False,4
24.3,-282.7506103515625,-12.367816925048828,0.03875482454895973,0.00020490566384978592,168.69447326660156,0.05793939158320427,-9.793411254882812,2.058475971221924,2.193085265389527e-06,0.3330176770687103,-0.021093999966979027,0.0,False,4
24.400000000000002,-283.72918701171875,-12.161416053771973,0.03875383362174034,0.0003278490621596575,168.2338104248047,0.05713758245110512,-9.767109870910645,2.1333730220794678,4.386170644465892e-07,0.3344981074333191,-0.020661575719714165,0.0,False,4
24.5,-284.70513916015625,-11.947357177734375,0.03875280171632767,0.0004439622862264514,167.77374267578125,0.05699221417307854,-9.7402982711792,2.2103564739227295,6.674607675449806e-07,0.33593234419822693,-0.020847251638770103,0.0,False,4
