t,x,y,z,pitch,yaw,roll,vx,vy,vz,throttle,steer,brake,reverse,gear
0.0,-228.05282592773438,53.12730026245117,0.29999998211860657,0.0,-3.1824042797088623,0.0,0.0,0.0,0.0,0.0,0.0,0.0,False,0
0.1,-228.05282592773438,53.12730026245117,0.2428586781024933,0.0,-3.1824042797088623,0.0,0.0,0.0,-0.9794285297393799,0.0,0.0,0.0,False,0
0.2,-228.05282592773438,53.12730026245117,0.09282739460468292,0.0,-3.1824042797088623,0.0,5.6183523611252895e-08,1.0106174386237399e-06,-1.6581363677978516,0.699999988079071,8.642971806693822e-06,0.0,False,0
0.30000000000000004,-228.05282592773438,53.12730026245117,0.008942737244069576,0.0,-3.1824042797088623,0.0,1.04801411993094e-08,1.713172252948425e-07,-0.4019891917705536,0.6950303316116333,4.4113994590588845e-06,0.0,False,0
0.4,-228.05282592773438,53.12730026245117,-5.125045572640374e-05,0.0,-3.1824042797088623,0.0,1.0190390753450629e-08,1.6737661212573585e-07,0.0566057413816452,0.699999988079071,3.219663994968869e-06,0.0,False,0
0.5,-228.05282592773438,53.12730026245117,0.012554492801427841,0.0,-3.1824042797088623,0.0,-9.533877687317727e-09,-1.9692144803684641e-07,0.1458003968000412,0.699999988079071,3.220021653760341e-06,0.0,False,0
0.6000000000000001,-228.05282592773438,53.12730026245117,0.02552793361246586,0.0,-3.1824042797088623,0.0,1.1827378187945214e-08,2.8858968548206576e-08,0.1111629381775856,0.699999988079071,3.220379312551813e-06,0.0,False,0
0.7000000000000001,-228.05282592773438,53.12730026245117,0.03358682617545128,0.0,-3.1824042797088623,0.0,-2.7249387191119467e-09,-5.1974815562516596e-08,0.05990587919950485,0.699999988079071,3.2207369713432854e-06,0.0,False,0
0.8,-228.05282592773438,53.12730026245117,0.037347886711359024,0.0,-3.1824042797088623,0.0,-1.2214839806290456e-08,-7.03600733231724e-08,0.024391915649175644,0.699999988079071,3.2210946301347576e-06,0.0,False,0
0.9,-228.05282592773438,53.12730026245117,0.03861791640520096,0.0,-3.1824042797088623,0.0,4.124958152829095e-09,1.685619643865266e-08,0.0063857873901724815,0.699999988079071,3.22145228892623e-06,0.0,False,0
1.0,-228.05282592773438,53.12730026245117,0.03879503160715103,0.0,-3.1824042797088623,0.0,-2.11240713809957e-08,-2.300276236155696e-07,-0.0004358709556981921,0.699999988079071,3.221809947717702e-06,0.0,False,0
1.1,-228.05282592773438,53.12730026245117,0.03863920271396637,0.0,-3.1824042797088623,0.0,2.472722859803156e-10,-3.94539689807516e-08,-0.0019195027416571975,0.699999988079071,3.2221673791354988e-06,0.0,False,0
1.2000000000000002,-228.05282592773438,53.12730026245117,0.038462962955236435,0.0,-3.1824042797088623,0.0,2.529539466777919e-09,5.187721363597575e-09,-0.001538096577860415,0.699999988079071,3.222525037926971e-06,0.0,False,0
1.3,-228.05282592773438,53.12730026245117,0.0383497029542923,0.0,-3.1824042797088623,0.0,-9.949868484682156e-09,-1.2992002140777004e-08,-0.0008532055071555078,0.699999988079071,3.222882696718443e-06,0.0,False,0
1.4000000000000001,-228.05282592773438,53.12730026245117,0.03829534351825714,0.0,-3.1824042797088623,0.0,-2.1752830647869814e-08,-4.0173283366584656e-08,-0.00035787338856607676,0.699999988079071,3.2232403555099154e-06,0.0,False,0
1.5,-228.05282592773438,53.12730026245117,0.03827623277902603,0.0,-3.1824042797088623,0.0,1.7905910087989696e-09,-1.0268458305873196e-09,-9.95279333437793e-05,0.699999988079071,3.2235980143013876e-06,0.0,False,0
1.6,-228.05282592773438,53.12730026245117,0.038273029029369354,0.0,-3.1824042797088623,0.0,1.4447226748259823e-09,3.5477454307653034e-09,1.7163276879728073e-06,0.699999988079071,3.22395567309286e-06,0.0,False,0
1.7000000000000002,-228.05282592773438,53.12730026245117,0.03827489912509918,0.0,-3.1824042797088623,0.0,-8.77337202886963e-10,-3.168374362871873e-08,2.4791399482637644e-05,0.699999988079071,3.224313331884332e-06,0.0,False,0
1.8,-228.05282592773438,53.12730026245117,0.03827726095914841,0.0,-3.1824042797088623,0.0,1.3584131597355054e-09,1.2602384413806789e-10,2.1282461602822877e-05,0.699999988079071,3.224670990675804e-06,0.0,False,0
1.9000000000000001,-228.05282592773438,53.12730026245117,0.038278866559267044,0.0,-3.1824042797088623,0.0,1.893477818981637e-09,-4.2014980383697775e-10,1.291059743380174e-05,0.699999988079071,3.225028422093601e-06,0.0,False,0
2.0,-228.05282592773438,53.12730026245117,0.038278866559267044,0.0,-3.1824042797088623,0.0,3.482689248102133e-09,2.6535275310379802e-08,5.759232863056241e-06,0.699999988079071,3.225386080885073e-06,0.0,False,0
2.1,-228.05282592773438,53.12730026245117,0.038278866559267044,0.0,-3.1824042797088623,0.0,7.144898561683988e-10,-1.933284365929211e-10,1.926101049321005e-06,0.699999988079071,3.2257437396765454e-06,0.0,False,0
2.2,-228.05282592773438,53.12730026245117,0.038278866559267044,0.0,-3.1824042797088623,0.0,5.949826742401854e-11,8.918841776228703e-10,3.623358395543619e-07,0.699999988079071,3.2261013984680176e-06,0.0,False,0
2.3000000000000003,-228.05282592773438,53.12730026245117,0.038278866559267044,0.0,-3.1824042797088623,0.0,1.2440127150625813e-08,2.4603568959946642e-08,7.628123199765469e-08,0.699999988079071,3.2264590572594898e-06,0.0,False,0
2.4000000000000004,-228.05282592773438,53.12730026245117,0.038278866559267044,0.0,-3.1824042797088623,0.0,-2.2883083872216048e-08,-4.162015088127191e-08,-3.2419524131910293e-07,0.699999988079071,3.226816716050962e-06,0.0,False,0
2.5,-228.05282592773438,53.12730026245117,0.038278866559267044,0.0,-3.1824042797088623,0.0,7.937980051053728e-09,-2.964994294529788e-08,-1.7163276311293885e-07,0.699999988079071,3.227174374842434e-06,0.0,False,0
2.6,-228.0233917236328,53.125667572021484,0.0380045510828495,0.03268928453326225,-3.1830451488494873,5.2809951739618555e-05,0.692234992980957,-0.03851332515478134,-1.106077775148151e-06,0.699999988079071,3.227531806260231e-06,0.0,False,0
2.7,-227.89903259277344,53.11875915527344,0.03751245513558388,0.09134694188833237,-3.1842358112335205,0.0002739057526923716,1.6112213134765625,-0.08964716643095016,-5.091771981824422e-06,0.699999988079071,3.227889465051703e-06,0.0,False,1
2.8000000000000003,-227.6912384033203,53.107215881347656,0.037279147654771805,0.11910483241081238,-3.1856391429901123,0.00047170318430289626,2.3890583515167236,-0.1329738199710846,-6.007147021591663e-06,0.699999988079071,1.4996528534538811e-06,0.0,False,1
2.9000000000000004,-227.41395568847656,53.09178924560547,0.037269916385412216,0.12017717212438583,-3.1869821548461914,0.0005391394370235503,3.0265610218048096,-0.16850519180297852,6.674607675449806e-07,0.6015245914459229,7.877826647018082e-06,0.0,False,1
3.0,-227.08120727539062,53.07326889038086,0.037380848079919815,0.10696075856685638,-3.1880805492401123,0.0005007501458749175,3.524991035461426,-0.19628635048866272,1.220499711962475e-06,0.5449091196060181,1.9859373423969373e-05,0.0,False,1
3.1,-226.70611572265625,53.05240249633789,0.03753740340471268,0.0883006826043129,-3.1884162425994873,0.00036496823304332793,3.8987133502960205,-0.2169310301542282,3.108460077783093e-06,0.5248639583587646,8.518969843862578e-05,0.0,False,1
3.2,-226.29954528808594,53.02980041503906,0.037694986909627914,0.06955181062221527,-3.1875617504119873,0.00017603652668185532,4.1759209632873535,-0.23199166357517242,2.44099942392495e-06,0.540581464767456,0.00018485754844732583,0.0,False,1
3.3000000000000003,-225.86911010742188,53.005916595458984,0.037826862186193466,0.05384920910000801,-3.185028553009033,-6.103525083744898e-05,4.391054153442383,-0.24329358339309692,1.163288743555313e-06,0.5742489099502563,0.00033060842542909086,0.0,False,1
3.4000000000000004,-225.41932678222656,52.981014251708984,0.03792199864983559,0.042504265904426575,-3.1806344985961914,-0.0002746582613326609,4.5726799964904785,-0.25250065326690674,4.386170644465892e-07,0.6035600900650024,0.000486205390188843,0.0,False,1
3.5,-224.95245361328125,52.955257415771484,0.03798352926969528,0.035182300955057144,-3.174072504043579,-0.00048828116268850863,4.736325263977051,-0.2603999078273773,3.2419524131910293e-07,0.6126525402069092,0.000665956293232739,0.0,False,1
3.6,-224.4700164794922,52.92877197265625,0.03802232816815376,0.030558263882994652,-3.164215326309204,-0.0007934569148346782,4.885402202606201,-0.26679787039756775,9.153747555501468e-07,0.6001617312431335,0.0009528362425044179,0.0,False,1
3.7,-223.97364807128906,52.90169906616211,0.03831365332007408,0.027027057483792305,-3.1509406566619873,-0.0010986328125,5.017177104949951,-0.27190786600112915,0.015710119158029556,0.5758835077285767,0.0012153007555752993,0.0,False,1
3.8000000000000003,-223.46527099609375,52.874183654785156,0.038983020931482315,0.023721246048808098,-3.1332101821899414,-0.0014953612117096782,5.13139009475708,-0.27529749274253845,0.0019387827487662435,0.551874041557312,0.0015581994084641337,0.0,False,1
3.9000000000000004,-222.94712829589844,52.8464241027832,0.03895318880677223,0.02057252824306488,-3.1103522777557373,-0.0018920896109193563,5.24676513671875,-0.2781071066856384,-0.001529877306893468,0.5353456139564514,0.0019428534433245659,0.0,False,1
4.0,-222.4219512939453,52.81869125366211,0.03881628066301346,0.017027661204338074,-3.085907459259033,-0.0024108884390443563,5.3124871253967285,-0.27719995379447937,-0.00155241833999753,0.5239040851593018,0.0024344176054000854,0.0,False,1
4.1000000000000005,-221.89459228515625,52.79127883911133,0.038757000118494034,0.010088188573718071,-3.0601813793182373,-0.0028076169546693563,5.301301956176758,-0.27192553877830505,-0.0008995844982564449,0.49205857515335083,0.002867789939045906,0.0,False,1
4.2,-221.36865234375,52.764339447021484,0.038744449615478516,0.004589886870235205,-3.019867181777954,-0.0033264155499637127,5.291403770446777,-0.26567867398262024,-0.00039645261131227016,0.527810275554657,0.0034024780616164207,0.0,False,0
4.3,-220.8436279296875,52.73799514770508,0.038744524121284485,0.001912452862598002,-2.972778797149658,-0.0038452146109193563,5.281965732574463,-0.2588769495487213,-0.00013097487681079656,0.6131694316864014,0.003951462917029858,0.0,False,0
4.4,-220.31954956054688,52.712303161621094,0.03874833881855011,0.0007513207383453846,-2.919616937637329,-0.004241943825036287,5.272543430328369,-0.2517598867416382,-2.473418862791732e-05,0.6147130131721497,0.004434875678271055,0.0,False,0
4.5,-219.79644775390625,52.68729019165039,0.0387520007789135,0.00027320755179971457,-2.860473871231079,-0.004608153831213713,5.263154029846191,-0.24411317706108093,6.407623004633933e-06,0.6169971227645874,0.004924241919070482,0.0,False,0
4.6000000000000005,-219.27157592773438,52.66280746459961,0.03871793672442436,0.004460113123059273,-2.781830310821533,-0.005096435546875,5.365548133850098,-0.2408151775598526,8.867693395586684e-06,0.6197370290756226,0.005445491522550583,0.0,False,0
4.7,-218.71897888183594,52.63795852661133,0.03852460905909538,0.027566641569137573,-2.703400135040283,-0.005981444846838713,5.688060760498047,-0.2457214891910553,5.339686140359845e-06,0.6224650144577026,0.005977287422865629,0.0,False,2
4.800000000000001,-218.1381072998047,52.61269760131836,0.03842927888035774,0.03897988796234131,-2.619842529296875,-0.006378173828125,5.9349236488342285,-0.2474973052740097,-8.772341288931784e-07,0.4760366678237915,0.00610888097435236,0.0,False,2
4.9,-217.5385284423828,52.58749771118164,0.03845571354031563,0.03583800047636032,-2.533172845840454,-0.006500244140625,6.066803455352783,-0.24402819573879242,8.772341288931784e-07,0.15521469712257385,0.0061251698061823845,0.0,False,2
5.0,-216.93380737304688,52.56304931640625,0.03857019171118736,0.022211773321032524,-2.443084955215454,-0.006835937034338713,6.0695343017578125,-0.23379182815551758,2.9368272862484446e-06,0.17027416825294495,0.006370131392031908,0.0,False,2
5.1000000000000005,-216.33265686035156,52.53985595703125,0.03868944197893143,0.007998150773346424,-2.353546380996704,-0.007324219215661287,6.016857147216797,-0.2203627973794937,3.432655262258777e-07,0.2580309212207794,0.006751740351319313,0.0,False,2
5.2,-215.73837280273438,52.5180549621582,0.03877519443631172,-0.002226641634479165,-2.26324462890625,-0.007690429221838713,5.9361796379089355,-0.20574648678302765,-3.0512492799061874e-07,0.39542680978775024,0.007118006702512503,0.0,False,2
5.300000000000001,-215.15139770507812,52.49755096435547,0.038813188672065735,-0.006775547284632921,-2.161620855331421,-0.007873534224927425,5.880297660827637,-0.19229911267757416,5.530388875740755e-07,0.4688652455806732,0.007397523149847984,0.0,False,2
5.4,-214.5667266845703,52.478294372558594,0.03879373520612717,-0.004425962455570698,-2.054290771484375,-0.008270262740552425,5.881103515625,-0.17984409630298615,1.8879603658206179e-06,0.5204784274101257,0.0078076706267893314,0.0,False,2
5.5,-213.97909545898438,52.46002960205078,0.03874383866786957,0.001495811389759183,-1.9474185705184937,-0.008026122115552425,5.927114963531494,-0.17089352011680603,-9.535153822071152e-07,0.5090999603271484,0.007616844028234482,0.0,False,2
5.6000000000000005,-213.3857421875,52.4427375793457,0.038699474185705185,0.006789207458496094,-1.8384703397750854,-0.008209228515625,5.986572265625,-0.16048535704612732,9.535153822071152e-07,0.4486019015312195,0.007855966687202454,0.0,False,2
5.7,-212.78726196289062,52.42634582519531,0.03868360444903374,0.008688000030815601,-1.7337646484375,-0.00775146484375,6.027919292449951,-0.15208148956298828,-8.200231604860164e-07,0.3881787955760956,0.007432167883962393,0.0,False,2
5.800000000000001,-212.186279296875,52.41091537475586,0.03869592398405075,0.007205849047750235,-1.6314393281936646,-0.007507323753088713,6.0406670570373535,-0.14208467304706573,2.3837885692046257e-06,0.3581939935684204,0.007321050390601158,0.0,False,2
5.9,-211.58534240722656,52.39664077758789,0.038720760494470596,0.004255207721143961,-1.525665283203125,-0.007904053665697575,6.03356409072876,-0.1296374797821045,-1.5256246399530937e-07,0.3665597140789032,0.007641240954399109,0.0,False,2
6.0,-210.98545837402344,52.38353729248047,0.0387408621609211,0.001857811352238059,-1.4178466796875,-0.008148192428052425,6.021912574768066,-0.1176755428314209,-1.7163276879728073e-06,0.39384573698043823,0.007719981949776411,0.0,False,2
6.1000000000000005,-210.386474609375,52.37157440185547,0.03874845430254936,0.0009698867797851562,-1.3108519315719604,-0.008056640625,6.016897678375244,-0.10653652995824814,1.8307495111002936e-06,0.4171181321144104,0.007643694058060646,0.0,False,2
6.2,-209.7884063720703,52.360721588134766,0.03875325992703438,0.0003824905725196004,-1.2050474882125854,-0.007873534224927425,6.0050177574157715,-0.09553007781505585,-1.907030799941367e-08,0.42520326375961304,0.007552504073828459,0.0,False,0
6.300000000000001,-209.19142150878906,52.35095977783203,0.03875596821308136,5.464151035994291e-05,-1.100799560546875,-0.007690429221838713,5.994212627410889,-0.08476047962903976,2.0977338976990723e-07,0.4195769727230072,0.007465244270861149,0.0,False,0
6.4,-208.5955352783203,52.34226608276367,0.03875722736120224,-9.56226431299001e-05,-0.9980164170265198,-0.007537840399891138,5.983407497406006,-0.07420193403959274,6.483904826382059e-07,0.4301905333995819,0.007374044973403215,0.0,False,0
6.5,-208.00071716308594,52.3345947265625,0.03875783830881119,-0.00015709434228483588,-0.8979796767234802,-0.00726318359375,5.972593784332275,-0.06439300626516342,-3.2419524131910293e-07,0.4320446848869324,0.00716434046626091,0.0,False,0
6.6000000000000005,-207.40701293945312,52.32788848876953,0.03875791281461716,-0.00018441509746480733,-0.8017577528953552,-0.006866454146802425,5.961777687072754,-0.05528540164232254,-1.620976036065258e-06,0.4350409209728241,0.0068879807367920876,0.0,False,0
6.7,-206.80377197265625,52.32205581665039,0.03867044299840927,0.010258943773806095,-0.6947021484375,-0.007293700240552425,6.121975421905518,-0.04568604379892349,-1.620976036065258e-06,0.43803802132606506,0.00705298688262701,0.0,False,3
6.800000000000001,-206.187744140625,52.31709289550781,0.038616083562374115,0.016747623682022095,-0.600860595703125,-0.006835937034338713,6.2285308837890625,-0.038557879626750946,9.153747555501468e-07,0.4410283863544464,0.006447756662964821,0.0,False,3
6.9,-205.5640411376953,52.31264877319336,0.038625430315732956,0.01563430204987526,-0.5269164443016052,-0.004943848121911287,6.276834487915039,-0.03620445355772972,-7.628122489222733e-07,0.21600274741649628,0.004971813410520554,0.0,False,3
7.0,-204.93899536132812,52.30889129638672,0.03867639601230621,0.009548603557050228,-0.4554748237133026,-0.004791259299963713,6.271951198577881,-0.02844427525997162,-1.3921323898102855e-06,0.24486804008483887,0.005021464545279741,0.0,False,3
7.1000000000000005,-204.31529235839844,52.3060188293457,0.03872114047408104,0.004207396414130926,-0.37811279296875,-0.005645751953125,6.256561279296875,-0.018431149423122406,1.3349215066682518e-07,0.2941698729991913,0.005436118226498365,0.0,False,3
7.2,-203.6926727294922,52.30384063720703,0.038741204887628555,0.0018373207421973348,-0.3067626357078552,-0.005157470703125,6.250877380371094,-0.013092556968331337,-5.721092293242691e-07,0.35232388973236084,0.00474226800724864,0.0,False,3
7.300000000000001,-203.0697479248047,52.302337646484375,0.03873990848660469,0.001973924459889531,-0.2387695461511612,-0.004913330543786287,6.25942850112915,-0.006321701221168041,2.8605461466213455e-07,0.36772456765174866,0.004627210553735495,0.0,False,3
7.4,-202.44541931152344,52.30149459838867,0.03873101994395256,0.003046264173462987,-0.1740722507238388,-0.004669188987463713,6.275391578674316,-0.0002547483309172094,-1.0107263506142772e-06,0.35894861817359924,0.004380636382848024,0.0,False,3
7.5,-201.81948852539062,52.30125427246094,0.038724496960639954,0.00383856613188982,-0.1133422702550888,-0.004364013671875,6.291125297546387,0.005311283748596907,-1.735397972879582e-06,0.341566801071167,0.004107867367565632,0.0,False,3
7.6000000000000005,-201.1921844482422,52.30147171020508,0.038723237812519073,0.003968339879065752,-0.0611572228372097,-0.0035400392953306437,6.302712917327881,0.008481159806251526,-1.6019057511584833e-06,0.32947880029678345,0.003435047809034586,0.0,False,3
7.7,-200.56393432617188,52.30210494995117,0.038726214319467545,0.0036336604971438646,-0.015014649368822575,-0.0030212400015443563,6.310251712799072,0.012083581648766994,-9.153747555501468e-07,0.3256015181541443,0.0030868533067405224,0.0,False,3
7.800000000000001,-199.93511962890625,52.30324172973633,0.03872980177402496,0.0031965284142643213,0.031213440001010895,-0.0032348628155887127,6.315615653991699,0.01745024137198925,-6.102498559812375e-07,0.32701200246810913,0.0031917484011501074,0.0,False,3
7.9,-199.3057403564453,52.30483627319336,0.03873246908187866,0.00288233975879848,0.07596231997013092,-0.0032348628155887127,6.320487022399902,0.0218057818710804,-2.44099942392495e-06,0.3293956518173218,0.0030291741713881493,0.0,False,3
8.0,-198.67587280273438,52.3067512512207,0.03873380646109581,0.0027320755179971457,0.11360066384077072,-0.0025634765625,6.325567722320557,0.023767467588186264,-6.865310524517554e-07,0.3303529918193817,0.002445635851472616,0.0,False,3
8.1,-198.04550170898438,52.30903244018555,0.038734070956707,0.002684264210984111,0.14945745468139648,-0.0025024411734193563,6.330751895904541,0.027605468407273293,1.5256246399530937e-07,0.32965388894081116,0.0024538279976695776,0.0,False,3
8.200000000000001,-197.41461181640625,52.31166076660156,0.038734376430511475,0.0026569433975964785,0.18372899293899536,-0.0024414060171693563,6.335676193237305,0.03088569827377796,1.0107263506142772e-06,0.3281594216823578,0.0023178148549050093,0.0,False,3
8.3,-196.78323364257812,52.31452560424805,0.03873498737812042,0.0026091320905834436,0.21214090287685394,-0.0018920894945040345,6.340082168579102,0.03223985806107521,-1.0870074902413762e-06,0.3267306685447693,0.0018416065722703934,0.0,False,3
8.4,-196.15147399902344,52.31767272949219,0.03873548284173012,0.0025339999701827765,0.23922888934612274,-0.0018615720327943563,6.343912124633789,0.03518814593553543,1.1251480600549257e-06,0.3257688581943512,0.0018604535143822432,0.0,False,3
8.5,-195.51934814453125,52.32107925415039,0.03873620927333832,0.002452037762850523,0.2649106979370117,-0.0018005369929596782,6.34727144241333,0.03757286071777344,3.432655262258777e-07,0.32523199915885925,0.0017358134500682354,0.0,False,3
8.6,-194.8868865966797,52.32465744018555,0.03873685747385025,0.002376905642449856,0.28572916984558105,-0.0013427733210846782,6.3502960205078125,0.03840441256761551,-1.3349215066682518e-07,0.32488736510276794,0.0013440584298223257,0.0,False,3
8.700000000000001,-194.25411987304688,52.32843017578125,0.03873731568455696,0.002315433928743005,0.3054564297199249,-0.0013122557429596782,6.353059768676758,0.0405522920191288,4.767576911035576e-07,0.3245696723461151,0.0013601601822301745,0.0,False,3
8.8,-193.62109375,52.33238983154297,0.038737885653972626,0.00226762262172997,0.3239668607711792,-0.0012817383976653218,6.355607986450195,0.04220949858427048,2.4600697088317247e-06,0.3242042064666748,0.0012528644874691963,0.0,False,3
8.9,-192.98782348632812,52.33646774291992,0.0387381911277771,0.002226641634479165,0.3385825455188751,-0.0009155274019576609,6.357956409454346,0.04265894740819931,-4.1954677953981445e-07,0.3238096535205841,0.0009421164868399501,0.0,False,3
9.0,-192.3543243408203,52.34067916870117,0.038738496601581573,0.002192490501329303,0.35233959555625916,-0.00091552734375,6.360095024108887,0.044160179793834686,-3.623358395543619e-07,0.32343652844429016,0.000956139643676579,0.0,False,3
9.1,-191.72064208984375,52.34501266479492,0.03873872756958008,0.002158339601010084,0.36511051654815674,-0.0008850098238326609,6.362041473388672,0.04525800421833992,-7.05601394201949e-07,0.32310691475868225,0.000869120005518198,0.0,False,3
9.200000000000001,-191.08677673339844,52.349422454833984,0.03873899206519127,0.0021241887006908655,0.3747822046279907,-0.0006103514460846782,6.363816261291504,0.04540184512734413,6.483904826382059e-07,0.32282543182373047,0.0006226404220797122,0.0,False,3
9.3,-190.45272827148438,52.353919982910156,0.038739338517189026,0.002096867887303233,0.3837639093399048,-0.0006103515042923391,6.365431308746338,0.0463772714138031,1.5256246399530937e-07,0.3225889801979065,0.0006332240300253034,0.0,False,3
9.4,-189.81851196289062,52.35849380493164,0.03873949125409126,0.0020695473067462444,0.3920031487941742,-0.0005798339261673391,6.366914749145508,0.04705270752310753,4.958279760103323e-07,0.32238084077835083,0.0005679205642081797,0.0,False,3
9.5,-189.1841583251953,52.36309814453125,0.03873971849679947,0.0020490565802901983,0.3979016840457916,-0.0003662109375,6.368280410766602,0.0470062680542469,-3.8140612446113664e-07,0.32218751311302185,0.00038184458389878273,0.0,False,3
9.600000000000001,-188.54966735839844,52.36775588989258,0.03873990848660469,0.002028566086664796,0.4032772481441498,-0.00036621090839616954,6.369534015655518,0.047587212175130844,-6.674607675449806e-07,0.3220086693763733,0.00038977264193817973,0.0,False,3
9.700000000000001,-187.91505432128906,52.37246322631836,0.038740139454603195,0.0020080755930393934,0.40805837512016296,-0.000335693359375,6.370688438415527,0.04792771115899086,-8.772341288931784e-07,0.3218516409397125,0.0003376707900315523,0.0,False,3
9.8,-187.28033447265625,52.37718200683594,0.038740213960409164,0.0019944151863455772,0.4111686050891876,-0.00018310546875,6.3717570304870605,0.04777796193957329,9.535153111528416e-08,0.3217061161994934,0.0002065231092274189,0.0,False,3
9.9,-186.6455078125,52.38192367553711,0.0387403666973114,0.001980754779651761,0.41395512223243713,-0.00018310548330191523,6.372744083404541,0.0480920635163784,-1.4684136431242223e-06,0.3215806782245636,0.00021615499281324446,0.0,False,3
10.0,-186.0105743408203,52.38667678833008,0.038740597665309906,0.001967094372957945,0.41625285148620605,-0.000152587890625,6.373660087585449,0.048187579959630966,-7.05601394201949e-07,0.3214662969112396,0.0001721962180454284,0.0,False,3
10.100000000000001,-185.37557983398438,52.39144515991211,0.038740597665309906,0.0019534339662641287,0.41746416687965393,-6.103515261202119e-05,6.374510765075684,0.04800926521420479,-9.344450404569216e-07,0.3213616609573364,8.984500891529024e-05,0.0,False,3
10.200000000000001,-184.740478515625,52.396209716796875,0.038740672171115875,0.0019466037629172206,0.41842928528785706,-6.103514533606358e-05,6.375301837921143,0.048106588423252106,-1.7163276311293885e-07,0.3212689757347107,9.224683162756264e-05,0.0,False,3
10.3,-184.10533142089844,52.40098190307617,0.03874070942401886,0.0019397735595703125,0.4191571772098541,-6.103514533606358e-05,6.376042366027832,0.04811402037739754,-1.9070306223056832e-07,0.3211897611618042,7.181608816608787e-05,0.0,False,3
10.4,-183.47010803222656,52.40575408935547,0.03874082490801811,0.0019329434726387262,0.41930869221687317,-3.0517576306010596e-05,6.376733779907227,0.047963786870241165,-1.220499711962475e-06,0.32111456990242004,2.7241170755587518e-05,0.0,False,3
10.5,-182.8347930908203,52.41053009033203,0.038740940392017365,0.0019329434726387262,0.41930869221687317,-3.0517576306010596e-05,6.37738037109375,0.047952763736248016,-9.344450404569216e-07,0.32104694843292236,2.665150532266125e-05,0.0,False,3
10.600000000000001,-182.19944763183594,52.415283203125,0.038741014897823334,0.00191928306594491,0.41908955574035645,-3.051757266803179e-05,6.377987384796143,0.04786309599876404,-8.96304470643372e-07,0.32099172472953796,8.475784852635115e-06,0.0,False,3
10.700000000000001,-181.56399536132812,52.4200325012207,0.03874105215072632,0.001912452862598002,0.41881099343299866,-3.051757266803179e-05,6.3785600662231445,0.04783128574490547,-7.818825906724669e-07,0.3209405243396759,8.537237590644509e-06,0.0,False,3
10.8,-180.92852783203125,52.42477798461914,0.0387410931289196,0.0019056226592510939,0.4186168909072876,-6.103514533606358e-05,6.37910270690918,0.04784119874238968,-2.6698430133365036e-07,0.32089608907699585,1.6107856936287135e-05,0.0,False,3
10.9,-180.29296875,52.42952346801758,0.038741130381822586,0.0018987924559041858,0.4184223413467407,-6.103514533606358e-05,6.379618167877197,0.04781738296151161,-2.288436888875367e-07,0.32085496187210083,1.3902546925237402e-05,0.0,False,3
11.0,-179.6573944091797,52.43427658081055,0.03874116763472557,0.0018987924559041858,0.4184223413467407,-6.103514533606358e-05,6.38010835647583,0.047858674079179764,-5.14898317760526e-07,0.3208165764808655,2.594262514321599e-05,0.0,False,3
11.100000000000001,-179.02175903320312,52.439022064208984,0.038741204887628555,0.0018987924559041858,0.4182487726211548,-6.103514533606358e-05,6.380576133728027,0.04779711738228798,-5.530388875740755e-07,0.32078278064727783,1.27694020193303e-05,0.0,False,3
11.200000000000001,-178.3860626220703,52.44377136230469,0.03874128311872482,0.0018987924559041858,0.4177605211734772,-3.0517578125e-05,6.381023406982422,0.047653574496507645,-6.483904826382059e-07,0.32075366377830505,-1.1074243957409635e-05,0.0,False,3
11.3,-177.7503662109375,52.44849395751953,0.03874128311872482,0.0018987924559041858,0.41687166690826416,1.2003742085653357e-05,6.381450176239014,0.047445639967918396,-2.479139880051662e-07,0.32072797417640686,-3.90920031350106e-05,0.0,False,3
11.4,-177.11456298828125,52.45320129394531,0.038741204887628555,0.0018987924559041858,0.415583997964859,5.124400195199996e-05,6.381860733032227,0.047197312116622925,6.102498559812375e-07,0.3207060694694519,-6.556218431796879e-05,0.0,False,3
11.5,-176.478759765625,52.4578857421875,0.03874128311872482,0.0018987924559041858,0.4136676490306854,0.00011151675425935537,6.38225793838501,0.04680236801505089,9.7258566711389e-07,0.32068949937820435,-0.0001125394701375626,0.0,False,3
11.600000000000001,-175.8429412841797,52.4625244140625,0.03874132037162781,0.0018987924559041858,0.411234050989151,0.00015659652126487345,6.382643222808838,0.046402063220739365,3.0512492799061874e-07,0.32067281007766724,-0.00014390355499926955,0.0,False,3
11.700000000000001,-175.20703125,52.46712875366211,0.038741473108530045,0.0018987924559041858,0.4081207811832428,0.00021413796639535576,6.3830180168151855,0.04586111754179001,-1.0488669204278267e-06,0.32065755128860474,-0.00019362979219295084,0.0,False,3
11.8,-174.57110595703125,52.47167205810547,0.03874132037162781,0.0018987924559041858,0.40431493520736694,0.0002741907082963735,6.3833818435668945,0.04525299742817879,5.7210922221884175e-08,0.3206426799297333,-0.00023942643019836396,0.0,False,3
11.9,-173.93519592285156,52.47616195678711,0.038741473108530045,0.0018987924559041858,0.3997894525527954,0.0003364472067914903,6.383736610412598,0.044553130865097046,-5.530388875740755e-07,0.32063108682632446,-0.00028844637563452125,0.0,False,3
12.0,-173.29916381835938,52.48057556152344,0.038741473108530045,0.0018987924559041858,0.394498348236084,0.000398964126361534,6.384082317352295,0.0437547005712986,-7.818825906724669e-07,0.3206213414669037,-0.00034068996319547296,0.0,False,3
12.100000000000001,-172.66311645507812,52.484920501708984,0.038741473108530045,0.0018987924559041858,0.38839301466941833,0.0004670837370213121,6.384418964385986,0.042852502316236496,-7.818825906724669e-07,0.3206125497817993,-0.0003961575566790998,0.0,False,3
12.200000000000001,-172.02708435058594,52.48917007446289,0.03874143585562706,0.0018987924559041858,0.381504625082016,0.0005287870299071074,6.38474702835083,0.041875604540109634,-5.14898317760526e-07,0.3206062614917755,-0.00044793516281060874,0.0,False,3
12.3,-171.39097595214844,52.493324279785156,0.038741398602724075,0.0018987924559041858,0.3738718032836914,0.0005873398040421307,6.385067462921143,0.0408254936337471,2.6698430133365036e-07,0.3206033706665039,-0.0004973340546712279,0.0,False,3
12.4,-170.75482177734375,52.49737548828125,0.03874151036143303,0.0018987924559041858,0.36536452174186707,0.0006592009449377656,6.385383129119873,0.0396333709359169,-3.814061599882734e-08,0.32060152292251587,-0.0005588385974988341,0.0,False,3
12.5,-170.11866760253906,52.501312255859375,0.0387415885925293,0.0018987924559041858,0.3559991419315338,0.0007289593340829015,6.385695457458496,0.03836021572351456,-9.153747555501468e-07,0.3206002712249756,-0.0006154616130515933,0.0,False,3
12.600000000000001,-169.48251342773438,52.505126953125,0.03874143585562706,0.0018987924559041858,0.3460352122783661,0.0007687311735935509,6.386004447937012,0.03710131719708443,1.9642416191345546e-06,0.32059863209724426,-0.0006506918580271304,0.0,False,3
12.700000000000001,-168.84628295898438,52.508811950683594,0.03874151036143303,0.0018987924559041858,0.3351948857307434,0.0008409040165133774,6.38631010055542,0.03563717007637024,-4.958279760103323e-07,0.32059526443481445,-0.0007163264672271907,0.0,False,3
12.8,-168.21002197265625,52.512351989746094,0.038741663098335266,0.0018987924559041858,0.32355767488479614,0.0009051330271176994,6.3866119384765625,0.034133825451135635,1.6019057511584833e-06,0.32059258222579956,-0.0007665889570489526,0.0,False,3
12.9,-167.57374572753906,52.51576232910156,0.0387415885925293,0.0018987924559041858,0.3115778863430023,0.0009178862674161792,6.386908531188965,0.032728444784879684,-1.907030799941367e-08,0.32059165835380554,-0.0007812123512849212,0.0,False,3
13.0,-166.93746948242188,52.51901626586914,0.038741473108530045,0.0018987924559041858,0.29881688952445984,0.0009803344728425145,6.387203693389893,0.031064340844750404,-7.628123199765469e-08,0.3205922245979309,-0.000844538037199527,0.0,False,3
13.100000000000001,-166.30111694335938,52.52212905883789,0.03874155133962631,0.0018987924559041858,0.2861299216747284,0.0009486455237492919,6.387495040893555,0.029724985361099243,-1.1442184586485382e-06,0.3205932676792145,-0.0008197708521038294,0.0,False,3
13.200000000000001,-165.6647186279297,52.52506637573242,0.03874143585562706,0.0018987924559041858,0.2725508213043213,0.0010334323160350323,6.387784957885742,0.027903422713279724,-3.8140612446113664e-07,0.3205934166908264,-0.0009038466378115118,0.0,False,3
13.3,-165.02833557128906,52.527835845947266,0.03874151036143303,0.0018987924559041858,0.25823888182640076,0.0011000317754223943,6.388071060180664,0.026136301457881927,3.623358395543619e-07,0.3205936849117279,-0.0009439388522878289,0.0,False,3
13.4,-164.39195251464844,52.53046417236328,0.03874155133962631,0.0018987924559041858,0.24410951137542725,0.0010611747857183218,6.388354301452637,0.02465325966477394,2.91775700134167e-06,0.32059746980667114,-0.0009155476000159979,0.0,False,3
13.5,-163.7554931640625,52.53291320800781,0.03874155133962631,0.0018987924559041858,0.2292969822883606,0.001122074550949037,6.3886332511901855,0.022758133709430695,7.437419640154985e-07,0.320599228143692,-0.0009827064350247383,0.0,False,3
13.600000000000001,-163.11900329589844,52.535179138183594,0.03874162584543228,0.0018987924559041858,0.21396559476852417,0.0011663069017231464,6.388911724090576,0.02093331329524517,-4.0047643778962083e-07,0.3206014931201935,-0.0010090398136526346,0.0,False,3
13.700000000000001,-162.48251342773438,52.53729248046875,0.03874162584543228,0.0018987924559041858,0.19905997812747955,0.0011034994386136532,6.389188289642334,0.01943148858845234,2.002382188948104e-06,0.32060810923576355,-0.0009635503520257771,0.0,False,3
13.8,-161.845947265625,52.53923034667969,0.0387415885925293,0.0018987924559041858,0.1836303323507309,0.0011540907435119152,6.389463901519775,0.017506012693047523,-5.911795142310439e-07,0.3206094205379486,-0.0010218352545052767,0.0,False,3
13.9,-161.2093963623047,52.540985107421875,0.0387415885925293,0.0018987924559041858,0.16782228648662567,0.001188452821224928,6.389738082885742,0.015666330233216286,-1.8116792261935188e-06,0.3206115961074829,-0.00103863759431988,0.0,False,3
14.0,-160.57278442382812,52.542572021484375,0.0387415885925293,0.0018987924559041858,0.15267500281333923,0.001104556256905198,6.390010833740234,0.014206266030669212,-1.4493433582174475e-06,0.32061567902565,-0.000975509756244719,0.0,False,3
14.100000000000001,-159.93617248535156,52.54399108886719,0.03874155133962631,0.0018987924559041858,0.13711172342300415,0.0011479058302938938,6.390281677246094,0.012286464683711529,-5.339686026673007e-07,0.32061848044395447,-0.0010295659303665161,0.0,False,3
14.200000000000001,-159.2995147705078,52.54523849487305,0.03874143585562706,0.0018987924559041858,0.12132313847541809,0.0011709381360560656,6.390551567077637,0.010494905523955822,-1.1442184444376835e-07,0.32062050700187683,-0.0010344496695324779,0.0,False,3
14.3,-158.66282653808594,52.54629898071289,0.03874151036143303,0.0018987924559041858,0.10544615238904953,0.001180791761726141,6.390819549560547,0.008700232021510601,-4.958279760103323e-07,0.320625901222229,-0.0010401092004030943,0.0,False,3
14.4,-158.026123046875,52.547210693359375,0.03874155133962631,0.0018987924559041858,0.0906330868601799,0.0010552210733294487,6.391087532043457,0.007398390211164951,-8.581638439864037e-07,0.3206292688846588,-0.0009456302504986525,0.0,False,3
14.5,-157.38938903808594,52.54794692993164,0.038741473108530045,0.0018987924559041858,0.0755394697189331,0.0010905982926487923,6.391353607177734,0.005550205707550049,2.8605461466213455e-07,0.32063332200050354,-0.0009970039827749133,0.0,False,3
14.600000000000001,-156.7526397705078,52.548519134521484,0.0387415885925293,0.0018987924559041858,0.06032773107290268,0.0011102756252512336,6.391617774963379,0.0038553259801119566,-1.0488669204278267e-06,0.3206358253955841,-0.0009936605347320437,0.0,False,3
14.700000000000001,-156.11582946777344,52.54894256591797,0.03874155133962631,0.0018987924559041858,0.04630102962255478,0.0009790059411898255,6.391880512237549,0.0026738287415355444,-7.818825906724669e-07,0.3206414580345154,-0.0008907141163945198,0.0,False,3
14.8,-155.47903442382812,52.54920959472656,0.03874155133962631,0.0018987924559041858,0.032074231654405594,0.001013621804304421,6.392138481140137,0.000941161997616291,6.865310524517554e-07,0.3206459581851959,-0.0009376128436997533,0.0,False,3
14.9,-154.84217834472656,52.549320220947266,0.0387415885925293,0.0018987924559041858,0.017798012122511864,0.0010305381147190928,6.392396926879883,-0.000631042115855962,9.535153822071152e-07,0.32065171003341675,-0.0009296743664890528,0.0,False,3
15.0,-154.205322265625,52.54929733276367,0.03874162584543228,0.0018987924559041858,0.004782993346452713,0.0008949043694883585,6.3926568031311035,-0.0016789002111181617,-1.5256246399530937e-07,0.32066142559051514,-0.0008214765693992376,0.0,False,3
15.100000000000001,-153.5684356689453,52.549129486083984,0.03874162584543228,0.0018987924559041858,-0.008392333053052425,0.0009235910838469863,6.392915725708008,-0.003280622186139226,-4.576873777750734e-07,0.3206654191017151,-0.0008653883123770356,0.0,False,3
15.200000000000001,-152.9315185546875,52.5488166809082,0.0387415885925293,0.0018987924559041858,-0.02148437313735485,0.0009275657357648015,6.393172264099121,-0.004679222125560045,-5.911795142310439e-07,0.32066765427589417,-0.000846892362460494,0.0,False,3
15.3,-152.29457092285156,52.54839324951172,0.03874155133962631,0.0018987924559041858,-0.033233642578125,0.0007923651137389243,6.393430709838867,-0.005577698815613985,-8.96304470643372e-07,0.3206733465194702,-0.0007368982769548893,0.0,False,3
15.4,-151.65760803222656,52.54783630371094,0.0387415885925293,0.0018987924559041858,-0.0450439453125,0.0008122231811285019,6.393688201904297,-0.007002849597483873,2.288436888875367e-07,0.32068049907684326,-0.0007737083360552788,0.0,False,3
15.5,-151.02061462402344,52.54717254638672,0.03874155133962631,0.0018987924559041858,-0.0558166466653347,0.0007090057479217649,6.393947124481201,-0.007836452685296535,-2.6698430133365036e-07,0.32068368792533875,-0.000673243950586766,0.0,False,3
15.600000000000001,-150.3835906982422,52.546390533447266,0.03874162584543228,0.0018987924559041858,-0.0666198581457138,0.0007326498162001371,6.394203186035156,-0.009125272743403912,2.6126322154595982e-06,0.3206883668899536,-0.0007031324785202742,0.0,False,3
15.700000000000001,-149.74655151367188,52.54549026489258,0.03874162584543228,0.0018987924559041858,-0.0773315280675888,0.0007390921819023788,6.394460201263428,-0.010272132232785225,2.6698430133365036e-07,0.32069188356399536,-0.0006886730552650988,0.0,False,3
15.8,-149.10946655273438,52.54450607299805,0.03874155133962631,0.0018987924559041858,-0.0867919847369194,0.0006082396139390767,6.394718647003174,-0.010930577293038368,2.0977338976990723e-07,0.3206988275051117,-0.0005830134032294154,0.0,False,3
15.9,-148.4723663330078,52.54341125488281,0.0387415885925293,0.0018987924559041858,-0.0962219163775444,0.0006225635879673064,6.394974708557129,-0.012058679945766926,-1.7163276879728073e-06,0.3207024037837982,-0.0006112828268669546,0.0,False,3
16.0,-147.83523559570312,52.5422248840332,0.03874151036143303,0.0018987924559041858,-0.1054992526769638,0.0006209380808286369,6.395231246948242,-0.013026612810790539,7.628122489222733e-07,0.3207070529460907,-0.0005917468806728721,0.0,False,3
16.1,-147.19808959960938,52.54096221923828,0.03874162584543228,0.0018987924559041858,-0.1135253831744194,0.0004925715620629489,6.395486831665039,-0.013526326045393944,2.5744916456460487e-06,0.3207123875617981,-0.00048685172805562615,0.0,False,3
16.2,-146.5609130859375,52.539608001708984,0.03874162584543228,0.0018987924559041858,-0.1215515062212944,0.0005113582592457533,6.395739555358887,-0.014512675814330578,-2.288436888875367e-07,0.3207170069217682,-0.0005186871276237071,0.0,False,3
16.3,-145.9237060546875,52.53818893432617,0.03874155133962631,0.0018987924559041858,-0.1286926120519638,0.0004274467355571687,6.395994663238525,-0.014998083934187889,-2.517280563552049e-06,0.32072436809539795,-0.0004334542900323868,0.0,False,3
16.400000000000002,-145.28648376464844,52.53669738769531,0.03874155133962631,0.0018987924559041858,-0.13580322265625,0.0004425320657901466,6.396249294281006,-0.015842776745557785,-4.958279760103323e-07,0.3207319974899292,-0.00045336142648011446,0.0,False,3
16.5,-144.64923095703125,52.53511428833008,0.03874155133962631,0.0018987924559041858,-0.142730712890625,0.0004387635563034564,6.3965044021606445,-0.01654706709086895,-1.2967809652764117e-06,0.32073527574539185,-0.0004338079015724361,0.0,False,3
16.6,-144.01194763183594,52.53348922729492,0.038741473108530045,0.0018987924559041858,-0.1486511081457138,0.0003341594128869474,6.396760940551758,-0.016888020560145378,2.6698430133365036e-07,0.32074031233787537,-0.00034963834332302213,0.0,False,3
16.7,-143.37464904785156,52.53180694580078,0.0387415885925293,0.0018987924559041858,-0.1544494777917862,0.0003386757744010538,6.3970160484313965,-0.017571372911334038,-9.535153111528416e-08,0.3207448720932007,-0.0003654231259133667,0.0,False,3
16.8,-142.7373046875,52.530052185058594,0.03874151036143303,0.0018987924559041858,-0.1600952297449112,0.00033388298470526934,6.397270202636719,-0.018134018406271935,1.3349215350899613e-06,0.32074928283691406,-0.0003470520314294845,0.0,False,3
16.900000000000002,-142.09996032714844,52.52826690673828,0.0387415885925293,0.0018987924559041858,-0.1648559421300888,0.00024829062749631703,6.397526741027832,-0.018391195684671402,-9.153747555501468e-07,0.32075488567352295,-0.0002749729610513896,0.0,False,3
17.0,-141.4625701904297,52.526424407958984,0.03874151036143303,0.0018987924559041858,-0.1695251315832138,0.0002541209978517145,6.397781848907471,-0.01894666627049446,-1.5256244978445466e-06,0.32076168060302734,-0.0002893182681873441,0.0,False,3
17.1,-140.82516479492188,52.52455139160156,0.03874162584543228,0.0018987924559041858,-0.1735534518957138,0.00019487347162794322,6.3980393409729,-0.019176587462425232,-4.958279760103323e-07,0.3207644820213318,-0.00022986929980106652,0.0,False,3
17.2,-140.18772888183594,52.52262496948242,0.03874155133962631,0.0018987924559041858,-0.1774902045726776,0.00019821932073682547,6.398295879364014,-0.019630787894129753,-7.246716791087238e-07,0.3207704722881317,-0.00023812893778085709,0.0,False,3
17.3,-139.55027770996094,52.52067184448242,0.038741663098335266,0.0018987924559041858,-0.1812743991613388,0.00019350169168319553,6.3985514640808105,-0.019996894523501396,-1.5637651813449338e-06,0.320773720741272,-0.0002229618839919567,0.0,False,3
17.400000000000002,-138.9127960205078,52.51868438720703,0.03874155133962631,0.0018987924559041858,-0.1843871921300888,0.0001294844114454463,6.39880895614624,-0.02014242671430111,-1.907030799941367e-08,0.32077839970588684,-0.00016964458336587995,0.0,False,3
17.5,-138.2752685546875,52.51667404174805,0.03874155133962631,0.0018987924559041858,-0.187408447265625,0.00012907173368148506,6.399063587188721,-0.020490001887083054,1.926101049321005e-06,0.3207848072052002,-0.00017646633205004036,0.0,False,3
17.6,-137.6377410888672,52.51462173461914,0.03874162584543228,0.0018987924559041858,-0.1902770847082138,0.00012337425141595304,6.399316310882568,-0.020755082368850708,-1.163288743555313e-06,0.32078802585601807,-0.00016170929302461445,0.0,False,3
17.7,-137.0001678466797,52.5125617980957,0.0387415885925293,0.0018987924559041858,-0.1925353854894638,6.504895281977952e-05,6.399570941925049,-0.020824091508984566,-2.288436888875367e-07,0.3207951486110687,-0.00011345147504471242,0.0,False,3
17.8,-136.36257934570312,52.51047897338867,0.03874155133962631,0.0018987924559041858,-0.1947326511144638,6.794001819798723e-05,6.399825096130371,-0.021092873066663742,2.8605461466213455e-07,0.3208039700984955,-0.0001229488116223365,0.0,False,3
17.900000000000002,-135.72496032714844,52.50837707519531,0.03874170035123825,0.0018987924559041858,-0.1965637058019638,3.365508382557891e-05,6.40008020401001,-0.02116173878312111,2.135874410669203e-06,0.32080742716789246,-8.666735084261745e-05,0.0,False,3
18.0,-135.0873260498047,52.50625991821289,0.03874162584543228,0.0018987924559041858,-0.19830322265625,3.7571338907582685e-05,6.40033483505249,-0.021361922845244408,-1.7544682577863568e-06,0.3208126127719879,-9.061746823135763e-05,0.0,False,3
18.1,-134.4496612548828,52.50413513183594,0.0387415885925293,0.0018987924559041858,-0.199737548828125,9.635608876124024e-06,6.400589466094971,-0.0214191023260355,-1.0107263506142772e-06,0.32081788778305054,-6.285589188337326e-05,0.0,False,3
18.2,-133.8119659423828,52.50199890136719,0.03874170035123825,0.0018987924559041858,-0.2008361518383026,-3.051757266803179e-05,6.400844573974609,-0.02146180160343647,1.926101049321005e-06,0.3208225667476654,-4.290043580112979e-05,0.0,False,3
18.3,-133.1742401123047,52.499847412109375,0.03874151036143303,0.0018987924559041858,-0.20196533203125,-3.051757266803179e-05,6.401097774505615,-0.02161705121397972,3.8140612446113664e-07,0.32082903385162354,-5.1792492740787566e-05,0.0,False,3
18.400000000000002,-132.53546142578125,52.49766540527344,0.03872960805892944,0.0033194718416780233,-0.2009582221508026,-3.051757266803179e-05,6.431070327758789,-0.021848225966095924,3.432655262258777e-07,0.699999988079071,-4.1609935578890145e-05,0.0,False,3
18.5,-131.8885040283203,52.49543762207031,0.0386703684926033,0.01038871705532074,-0.19818115234375,-3.0517576306010596e-05,6.54587984085083,-0.022292831912636757,1.735397972879582e-06,0.699999988079071,-1.4140299754217267e-05,0.0,False,3
18.6,-131.22708129882812,52.49315643310547,0.03859762102365494,0.019063057377934456,-0.1971740573644638,2.76541177299805e-05,6.703282356262207,-0.02302464470267296,-5.339686026673007e-07,0.699999988079071,-2.2790183720644563e-05,0.0,False,3
18.7,-130.54928588867188,52.4908332824707,0.03854845091700554,0.024909699335694313,-0.1976623386144638,4.989951412426308e-05,6.865006446838379,-0.023623879998922348,-1.2395699968692497e-06,0.6276136636734009,8.074730430962518e-07,0.0,False,3
18.8,-129.85598754882812,52.48845672607422,0.03853284567594528,0.026774339377880096,-0.19818115234375,4.5318894990487024e-05,7.010272026062012,-0.02415040135383606,2.288436888875367e-07,0.562221884727478,1.3677723472937942e-05,0.0,False,3
18.900000000000002,-129.14927673339844,52.48602294921875,0.03854165971279144,0.0257156603038311,-0.1985779106616974,3.74481278413441e-05,7.133781433105469,-0.024619732052087784,1.792608941286744e-06,0.5265772342681885,1.6177840734599158e-05,0.0,False,3
19.0,-128.43121337890625,52.48354721069336,0.038561608642339706,0.02333875559270382,-0.198760986328125,1.0530922736506909e-05,7.239208221435547,-0.0249720998108387,1.0870074902413762e-06,0.5108400583267212,2.5831588573055342e-05,0.0,False,3
19.1,-127.70323944091797,52.48103713989258,0.03858266770839691,0.0208389051258564,-0.1988220363855362,0.0,7.33212423324585,-0.02530714124441147,2.4982102786452742e-06,0.5036863684654236,2.511484308342915e-05,0.0,False,3
19.200000000000003,-126.96636199951172,52.47849655151367,0.03860010206699371,0.018748868256807327,-0.1987610012292862,-3.0517578125e-05,7.416567325592041,-0.025568924844264984,2.822405576807796e-06,0.4972054362297058,3.1551368010696024e-05,0.0,False,3
19.3,-126.2213363647461,52.47592544555664,0.03861390799283981,0.017116453498601913,-0.1986694633960724,-3.051758176297881e-05,7.494443416595459,-0.025835704058408737,-6.102498559812375e-07,0.48876410722732544,2.9345637813094072e-05,0.0,False,3
19.400000000000002,-125.4687728881836,52.47333526611328,0.038624897599220276,0.01579822599887848,-0.1986084133386612,-3.051758176297881e-05,7.56631326675415,-0.02609041891992092,-4.576873777750734e-07,0.4787828326225281,2.618641337903682e-05,0.0,False,3
19.5,-124.70927429199219,52.47071838378906,0.03863447159528732,0.014650754630565643,-0.1985168606042862,-3.051758176297881e-05,7.632274150848389,-0.026300732046365738,2.0977338976990723e-07,0.4685859680175781,2.7795738787972368e-05,0.0,False,3
19.6,-123.94345092773438,52.468074798583984,0.03864339739084244,0.013592075556516647,-0.1984558254480362,-3.0517576306010596e-05,7.692477226257324,-0.026532530784606934,7.628122489222733e-07,0.45913952589035034,2.0762272470165044e-05,0.0,False,3
19.700000000000003,-123.17183685302734,52.46541213989258,0.03865175321698189,0.012594868429005146,-0.1983337551355362,-3.0517576306010596e-05,7.747264385223389,-0.02668534219264984,8.96304470643372e-07,0.4507923722267151,2.6603527658153325e-05,0.0,False,3
19.8,-122.39496612548828,52.462738037109375,0.03865964710712433,0.011659132316708565,-0.198150634765625,-3.0517576306010596e-05,7.797104358673096,-0.026827404275536537,1.3730621049035108e-06,0.44347330927848816,2.7676529498421587e-05,0.0,False,3
19.900000000000002,-121.61329650878906,52.46004867553711,0.03866685926914215,0.010798528790473938,-0.1978759616613388,-3.0517576306010596e-05,7.842484951019287,-0.026928164064884186,6.293201408880122e-07,0.4369610846042633,3.220684084226377e-05,0.0,False,3
20.0,-120.8272933959961,52.45734786987305,0.03867345675826073,0.010019887238740921,-0.19744873046875,-6.103514533606358e-05,7.883854866027832,-0.026982443407177925,3.432655262258777e-07,0.43106144666671753,3.953898703912273e-05,0.0,False,3
20.1,-120.03728485107422,52.454647064208984,0.038679447025060654,0.009302716702222824,-0.196929931640625,-6.103514533606358e-05,7.9215922355651855,-0.027022890746593475,-5.7210922221884175e-08,0.4256606698036194,4.3295272917021066e-05,0.0,False,3
20.200000000000003,-119.24366760253906,52.45194625854492,0.03868486359715462,0.008660679683089256,-0.1962585300207138,-9.155272709904239e-05,7.956026554107666,-0.027008751407265663,5.7210922221884175e-08,0.4207009971141815,5.223775951890275e-05,0.0,False,3
20.3,-118.44672393798828,52.44924545288086,0.038689784705638885,0.008073283359408379,-0.1954345703125,-0.0001220703125,7.987446308135986,-0.026978062465786934,-1.907030799941367e-08,0.41616353392601013,5.760455678682774e-05,0.0,False,3
20.400000000000002,-117.64677429199219,52.44654083251953,0.03869428485631943,0.007540528662502766,-0.194488525390625,-0.00012207030522404239,8.016115188598633,-0.026911618188023567,-4.0047643778962083e-07,0.4120216965675354,6.470055086538196e-05,0.0,False,3
20.5,-116.84407806396484,52.44384002685547,0.038698405027389526,0.0070555848069489,-0.1934203952550888,-0.00015258787607308477,8.04227352142334,-0.026822149753570557,-1.3349215350899613e-06,0.40825021266937256,7.060510688461363e-05,0.0,False,3
20.6,-116.03885650634766,52.441165924072266,0.03870191425085068,0.006611622869968414,-0.1921386420726776,-0.00018310545419808477,8.066145896911621,-0.026675067842006683,-1.5828354662517086e-06,0.4048164486885071,8.169610373442993e-05,0.0,False,3
20.700000000000003,-115.2313461303711,52.438499450683594,0.038705501705408096,0.006208641454577446,-0.1907043159008026,-0.000213623046875,8.087933540344238,-0.026509465649724007,9.535153822071152e-07,0.40169060230255127,8.92116513568908e-05,0.0,False,3
20.8,-114.42173767089844,52.435848236083984,0.038708627223968506,0.005839811637997627,-0.1890563666820526,-0.00024414061044808477,8.107824325561523,-0.026294905692338943,-1.106077775148151e-06,0.3988426625728607,0.00010018522152677178,0.0,False,3
20.900000000000002,-113.61021423339844,52.43321990966797,0.038711413741111755,0.005505132023245096,-0.187225341796875,-0.000274658203125,8.125985145568848,-0.02604583650827408,-2.288436888875367e-07,0.3962486684322357,0.00011050415923818946,0.0,False,3
21.0,-112.79692840576172,52.43061447143555,0.03871404379606247,0.005197773687541485,-0.185272216796875,-0.000274658203125,8.142571449279785,-0.025800427421927452,-7.246716791087238e-07,0.39388179779052734,0.00011444622941780835,0.0,False,3
21.1,-111.98204040527344,52.42803955078125,0.038716256618499756,0.004917736165225506,-0.18310546875,-0.00030517575214616954,8.157722473144531,-0.025486372411251068,2.212155550296302e-06,0.3917282521724701,0.00012715120101347566,0.0,False,3
21.200000000000003,-111.16570281982422,52.42549133300781,0.038718510419130325,0.004658188670873642,-0.1806640475988388,-0.00033569333027116954,8.171565055847168,-0.025119159370660782,-7.818825906724669e-07,0.389763742685318,0.000141466676723212,0.0,False,3
21.3,-110.3480224609375,52.422977447509766,0.03872049227356911,0.004425962455570698,-0.1780700385570526,-0.00036621096660383046,8.18421459197998,-0.02476031333208084,-4.767576911035576e-07,0.38797393441200256,0.00014702130283694714,0.0,False,3
21.400000000000002,-109.52913665771484,52.42050552368164,0.03872205689549446,0.004214226268231869,-0.175262451171875,-0.0003967284574173391,8.195778846740723,-0.02432999014854431,-1.7544682577863568e-06,0.38634395599365234,0.0001613389904377982,0.0,False,3
21.5,-108.70912170410156,52.4180793762207,0.03872384876012802,0.0040229810401797295,-0.1722106635570526,-0.00042724606464616954,8.206351280212402,-0.023865077644586563,-6.674607675449806e-07,0.3848603069782257,0.00017381020006723702,0.0,False,3
21.6,-107.88809967041016,52.41569519042969,0.038725413382053375,0.0038522265385836363,-0.1690368503332138,-0.00042724606464616954,8.216021537780762,-0.023422174155712128,-8.581638439864037e-07,0.38350534439086914,0.000176447574631311,0.0,False,3
21.700000000000003,-107.06614685058594,52.413352966308594,0.03872678801417351,0.0036951322108507156,-0.1657104343175888,-0.0004272460355423391,8.224869728088379,-0.022934356704354286,1.6972574030660326e-06,0.3822750747203827,0.00018504638865124434,0.0,False,3
21.8,-106.24334716796875,52.41106414794922,0.03872796893119812,0.0035448679700493813,-0.1621703952550888,-0.000457763671875,8.232967376708984,-0.022386178374290466,-9.535153822071152e-07,0.3811515271663666,0.00019883192726410925,0.0,False,3
21.900000000000002,-105.41976165771484,52.40882110595703,0.03872907534241676,0.003415094455704093,-0.158416748046875,-0.00048828122089616954,8.240381240844727,-0.021827613934874535,-1.1823590284620877e-06,0.3801283836364746,0.0002073137293336913,0.0,False,3
22.0,-104.595458984375,52.40665054321289,0.038729991763830185,0.003292151028290391,-0.15447998046875,-0.0005187987699173391,8.247172355651855,-0.02123681828379631,2.6698430701799225e-06,0.37919875979423523,0.00021698868658859283,0.0,False,3
22.1,-103.77049255371094,52.40452575683594,0.038731060922145844,0.003182868007570505,-0.15045166015625,-0.000518798828125,8.253395080566406,-0.020658744499087334,-1.5256246399530937e-07,0.3783515393733978,0.0002197503490606323,0.0,False,3
22.200000000000003,-102.94493865966797,52.4024658203125,0.038731709122657776,0.0030804150737822056,-0.1462097018957138,-0.0005493163480423391,8.259100914001465,-0.02000090479850769,-1.353991819996736e-06,0.3775784969329834,0.0002341955987503752,0.0,False,3
22.3,-102.11883544921875,52.40046691894531,0.0387326218187809,0.002991622779518366,-0.1417541205883026,-0.0005798339261673391,8.264336585998535,-0.01932726427912712,-7.437419640154985e-07,0.3768770098686218,0.00024387353914789855,0.0,False,3
22.400000000000002,-101.29222106933594,52.39853286743164,0.038733385503292084,0.0029096603393554688,-0.1372070163488388,-0.0005798339261673391,8.269143104553223,-0.018657613545656204,-1.9833119040413294e-06,0.3762369155883789,0.0002483667922206223,0.0,False,3
22.5,-100.46514129638672,52.39666748046875,0.03873392194509506,0.002834528451785445,-0.1326293796300888,-0.000579833984375,8.273554801940918,-0.018006376922130585,1.8688900809138431e-06,0.375652015209198,0.0002477942034602165,0.0,False,3
22.6,-99.63763427734375,52.39487075805664,0.038734570145606995,0.0027662264183163643,-0.1278686374425888,-0.0006103515042923391,8.277608871459961,-0.01727766916155815,-7.437419640154985e-07,0.3751218020915985,0.0002600970910862088,0.0,False,3
22.700000000000003,-98.80974578857422,52.39314651489258,0.03873498737812042,0.0027047547046095133,-0.1229248046875,-0.000640869140625,8.281338691711426,-0.016528407111763954,-7.05601394201949e-07,0.37464210391044617,0.0002693610149435699,0.0,False,3
22.8,-97.98149108886719,52.39149475097656,0.038735561072826385,0.002650113310664892,-0.1178588718175888,-0.0006713866605423391,8.284770011901855,-0.015770671889185905,-5.7210922221884175e-08,0.3742028474807739,0.0002757051552180201,0.0,False,3
22.900000000000002,-97.15290069580078,52.389915466308594,0.03873605653643608,0.0026023020036518574,-0.1129455491900444,-0.000640869140625,8.287933349609375,-0.015125581063330173,-6.865310524517554e-07,0.37380242347717285,0.0002607704955153167,0.0,False,3
23.0,-96.32400512695312,52.38840866088867,0.03873632475733757,0.0025544906966388226,-0.107818603515625,-0.00067138671875,8.290848731994629,-0.014304013922810555,-7.818825906724669e-07,0.37344175577163696,0.0002820762456394732,0.0,False,3
23.1,-95.49481964111328,52.38697814941406,0.03873685747385025,0.002513509476557374,-0.10260009765625,-0.0006713866605423391,8.293540954589844,-0.013554093427956104,-5.339686026673007e-07,0.3731086552143097,0.0002804346731863916,0.0,False,3
23.200000000000003,-94.6653823852539,52.38561248779297,0.038737162947654724,0.0024725282564759254,-0.0975341722369194,-0.0006408691988326609,8.296025276184082,-0.012871935032308102,-1.620976036065258e-06,0.3728104829788208,0.0002691966947168112,0.0,False,3
23.3,-93.83570098876953,52.38433837890625,0.038737352937459946,0.002438377356156707,-0.0922241136431694,-0.0006713866605423391,8.298324584960938,-0.0120190205052495,-9.535153822071152e-07,0.3725352883338928,0.00029115923098288476,0.0,False,3
23.400000000000002,-93.00579071044922,52.38313674926758,0.038737695664167404,0.002404226455837488,-0.0868530124425888,-0.0006713866605423391,8.30045223236084,-0.011243860237300396,-1.2014294270557002e-06,0.37229010462760925,0.00028898229356855154,0.0,False,3
23.5,-92.17568969726562,52.38201141357422,0.03873800113797188,0.002376905642449856,-0.0815124437212944,-0.0006713866605423391,8.302424430847168,-0.010485915467143059,-5.14898317760526e-07,0.37206462025642395,0.0002858518564607948,0.0,False,3
23.6,-91.3453598022461,52.380950927734375,0.03873823210597038,0.0023495848290622234,-0.0765380784869194,-0.0006408690824173391,8.304254531860352,-0.009877728298306465,-1.029796635521052e-06,0.3718607425689697,0.00025983244995586574,0.0,False,3
23.700000000000003,-90.51485443115234,52.37997055053711,0.038738422095775604,0.0023222642485052347,-0.0713806003332138,-0.00067138671875,8.305957794189453,-0.009049151092767715,1.0107263506142772e-06,0.3716756999492645,0.00028227188158780336,0.0,False,3
23.8,-89.68419647216797,52.379066467285156,0.03873864933848381,0.0023017735220491886,-0.066131591796875,-0.0006713866605423391,8.30754280090332,-0.008290602825582027,-9.7258566711389e-07,0.37150838971138,0.0002809887519106269,0.0,False,3
23.900000000000002,-88.8533935546875,52.378231048583984,0.03873880207538605,0.002281283028423786,-0.0611572228372097,-0.0006408691988326609,8.309020042419434,-0.007653167471289635,-7.05601394201949e-07,0.3713541030883789,0.0002613468386698514,0.0,False,3
24.0,-88.0224380493164,52.37746810913086,0.038738954812288284,0.00226762262172997,-0.0560607835650444,-0.0006408691988326609,8.310399055480957,-0.0068597206845879555,-3.623358395543619e-07,0.37121641635894775,0.000276752543868497,0.0,False,3
24.1,-87.19135284423828,52.37678146362305,0.038739144802093506,0.002253962215036154,-0.0509948655962944,-0.000640869140625,8.311690330505371,-0.006154845934361219,2.974967856061994e-06,0.3710911273956299,0.0002692102862056345,0.0,False,3
24.200000000000003,-86.36014556884766,52.37615966796875,0.03873926028609276,0.0022403020411729813,-0.0461730919778347,-0.0006103515042923391,8.312896728515625,-0.005524688400328159,1.4684136431242223e-06,0.37097927927970886,0.0002537995751481503,0.0,False,3
24.3,-85.52881622314453,52.375614166259766,0.03873937577009201,0.002226641634479165,-0.041351318359375,-0.0006103515042923391,8.314031600952148,-0.004806062672287226,-1.3158512501831865e-06,0.3708747923374176,0.00026002508820965886,0.0,False,3
24.400000000000002,-84.69737243652344,52.37512969970703,0.03873945027589798,0.002212981227785349,-0.0364685021340847,-0.0006103514460846782,8.31509780883789,-0.004083517473191023,-1.5256246399530937e-07,0.3707868456840515,0.00026309152599424124,0.0,False,3
24.5,-83.8658218383789,52.37471389770508,0.03873960301280022,0.0021993208210915327,-0.0319213829934597,-0.0005798339261673391,8.316104888916016,-0.0035339398309588432,-7.437419640154985e-07,0.37070056796073914,0.00023665267508476973,0.0,False,3
