t,x,y,z,pitch,yaw,roll,vx,vy,vz,throttle,steer,brake,reverse,gear
0.0,71.530029296875,306.41998291015625,0.5,0.0,-0.00018310546875,0.0,0.0,0.0,0.0,0.0,0.0,0.0,False,0
0.1,71.530029296875,306.41998291015625,0.44285884499549866,0.0,-0.00018310546875,0.0,0.0,0.0,-0.9794285297393799,0.0,0.0,0.0,False,0
0.2,71.530029296875,306.41998291015625,0.29933997988700867,0.0,-0.00018310546875,0.0,-4.968681466266389e-09,5.257359703136899e-07,-1.3825318813323975,0.699999988079071,0.031861450523138046,0.0,False,0
0.30000000000000004,71.530029296875,306.41998291015625,0.23049907386302948,0.0,-0.00018310546875,0.0,-3.5762968142449836e-09,1.5112946982753783e-07,-0.31939470767974854,0.699999988079071,0.009889892302453518,0.0,False,0
0.4,71.530029296875,306.41998291015625,0.2245473861694336,0.0,-0.00018310546875,0.0,5.967574878695814e-09,1.3180778068999643e-07,0.06117243692278862,0.699999988079071,0.009890991263091564,0.0,False,0
0.5,71.530029296875,306.41998291015625,0.23611651360988617,0.0,-0.00018310546875,0.0,6.341852376579027e-09,1.0349865675607361e-07,0.12971505522727966,0.699999988079071,0.00989209022372961,0.0,False,0
0.6000000000000001,71.530029296875,306.41998291015625,0.247465580701828,0.0,-0.00018310546875,0.0,8.23608115041452e-09,-1.6239167166531843e-07,0.09628242999315262,0.699999988079071,0.009893188253045082,0.0,False,0
0.7000000000000001,71.530029296875,306.41998291015625,0.2543843686580658,0.0,-0.00018310546875,0.0,7.1167574056119065e-09,6.987828982119026e-08,0.05105435848236084,0.699999988079071,0.009894287213683128,0.0,False,0
0.8,71.530029296875,306.41998291015625,0.2575622498989105,0.0,-0.00018310546875,0.0,-2.8722484390897307e-09,1.7150822984035585e-08,0.02041485905647278,0.699999988079071,0.009895386174321175,0.0,False,0
0.9,71.530029296875,306.41998291015625,0.25860878825187683,0.0,-0.00018310546875,0.0,7.921456379733627e-09,3.154334393684621e-08,0.005123352166265249,0.699999988079071,0.009896484203636646,0.0,False,0
1.0,71.530029296875,306.41998291015625,0.258735716342926,0.0,-0.00018310546875,0.0,7.895897269349916e-09,2.7038746353014176e-08,-0.0005546407774090767,0.699999988079071,0.009897583164274693,0.0,False,0
1.1,71.530029296875,306.41998291015625,0.2585911154747009,0.0,-0.00018310546875,0.0,7.669309631808119e-09,3.4119747027716585e-08,-0.0017153359949588776,0.699999988079071,0.009898681193590164,0.0,False,0
1.2000000000000002,71.530029296875,306.41998291015625,0.2584364712238312,0.0,-0.00018310546875,0.0,-2.3777440016914397e-09,4.198761782703286e-09,-0.001334749860689044,0.699999988079071,0.00989978015422821,0.0,False,0
1.3,71.530029296875,306.41998291015625,0.2583390772342682,0.0,-0.00018310546875,0.0,-2.845055302458377e-09,4.3786929637690264e-10,-0.0007279898854903877,0.699999988079071,0.009900879114866257,0.0,False,0
1.4000000000000001,71.530029296875,306.41998291015625,0.25829312205314636,0.0,-0.00018310546875,0.0,-3.6039156103839787e-09,1.5037801004424978e-09,-0.00030014757066965103,0.699999988079071,0.009901977144181728,0.0,False,0
1.5,71.530029296875,306.41998291015625,0.2582772672176361,0.0,-0.00018310546875,0.0,-3.764610845280458e-09,3.458230812825036e-09,-8.15827734186314e-05,0.699999988079071,0.009903076104819775,0.0,False,0
1.6,71.530029296875,306.41998291015625,0.2582748830318451,0.0,-0.00018310546875,0.0,-3.4750791133575376e-09,1.2253519310334582e-09,3.585217882573488e-06,0.699999988079071,0.009904175065457821,0.0,False,0
1.7000000000000002,71.530029296875,306.41998291015625,0.25827667117118835,0.0,-0.00018310546875,0.0,-3.190614883408216e-09,1.9819912377982973e-09,2.315135316166561e-05,0.699999988079071,0.009905273094773293,0.0,False,0
1.8,71.530029296875,306.41998291015625,0.2582787573337555,0.0,-0.00018310546875,0.0,-3.4411129501421556e-09,1.946705158184514e-10,1.8994025595020503e-05,0.699999988079071,0.009906372055411339,0.0,False,0
1.9000000000000001,71.530029296875,306.41998291015625,0.2582801282405853,0.0,-0.00018310546875,0.0,-2.8917372940640007e-09,1.067171684354662e-08,1.0145403393835295e-05,0.699999988079071,0.009907471016049385,0.0,False,0
2.0,71.530029296875,306.41998291015625,0.2582801282405853,0.0,-0.00018310546875,0.0,-1.6476888742289475e-09,1.0741808331715674e-08,4.290819106245181e-06,0.699999988079071,0.009908569045364857,0.0,False,0
2.1,71.530029296875,306.41998291015625,0.2582801282405853,0.0,-0.00018310546875,0.0,8.220051306295773e-09,-1.2098749557765132e-08,5.721092293242691e-07,0.699999988079071,0.009909668006002903,0.0,False,0
2.2,71.530029296875,306.41998291015625,0.2582801282405853,0.0,-0.00018310546875,0.0,-2.5782758150683094e-09,1.735331212060487e-09,1.1442184444376835e-07,0.699999988079071,0.00991076696664095,0.0,False,0
2.3000000000000003,71.530029296875,306.41998291015625,0.2582801282405853,0.0,-0.00018310546875,0.0,6.6682739330303775e-09,-1.0684520823645016e-08,1.907030799941367e-08,0.699999988079071,0.009911864995956421,0.0,False,0
2.4000000000000004,71.530029296875,306.41998291015625,0.2582801282405853,0.0,-0.00018310546875,0.0,5.295246463532521e-09,-1.1159650092906759e-08,-2.479139880051662e-07,0.699999988079071,0.009912963956594467,0.0,False,0
2.5,71.530029296875,306.41998291015625,0.2582801282405853,0.0,-0.00018310546875,0.0,-6.95950319595795e-09,1.2364171020351478e-08,-7.818825906724669e-07,0.699999988079071,0.009914062917232513,0.0,False,0
2.6,71.5594711303711,306.4201965332031,0.258005827665329,0.03268928453326225,0.007927692495286465,-0.0011596678523346782,0.6932806968688965,0.006301756948232651,-7.246716791087238e-07,0.699999988079071,0.009915160946547985,0.0,False,0
2.7,71.68399047851562,306.4210510253906,0.25751349329948425,0.09134694188833237,0.0405379980802536,-0.0030822756234556437,1.6136438846588135,0.014851009473204613,-3.8140615288284607e-06,0.699999988079071,0.009916259907186031,0.0,False,1
2.8000000000000003,71.89208984375,306.4223327636719,0.2572806179523468,0.11910483241081238,0.08336874842643738,-0.0031433103140443563,2.39267635345459,0.019238799810409546,-2.8414758617145708e-06,0.699999988079071,0.007934660650789738,0.0,False,1
2.9000000000000004,72.17008972167969,306.4243469238281,0.25726839900016785,0.12051185220479965,0.14357581734657288,-0.0039062497671693563,3.039215564727783,0.02874971553683281,-8.581638439864037e-07,0.699999988079071,0.008706656284630299,0.0,False,1
3.0,72.50581359863281,306.42694091796875,0.25736507773399353,0.10897566378116608,0.2086595594882965,-0.003631591098383069,3.5710484981536865,0.03455460071563721,-1.7544682577863568e-06,0.6918946504592896,0.00773087702691555,0.0,False,1
3.1,72.8889389038086,306.42816162109375,0.2574954032897949,0.09347113221883774,0.19488313794136047,0.004966590087860823,4.0064215660095215,0.006053957622498274,3.9856940929894336e-06,0.6641746759414673,-0.0029823794029653072,0.0,False,1
3.2,73.31079864501953,306.4293212890625,0.2576235234737396,0.07821249216794968,0.18464426696300507,0.00421861233189702,4.3617777824401855,0.012136025354266167,2.1549446955759777e-06,0.6469571590423584,-0.0004988822620362043,0.0,False,1
3.3000000000000003,73.76434326171875,306.4308776855469,0.257735937833786,0.06481166183948517,0.18768568336963654,0.0014144486049190164,4.652995586395264,0.01684560813009739,1.0679372053346015e-06,0.6355533599853516,0.0005690876860171556,0.0,False,1
3.4000000000000004,74.2439956665039,306.43280029296875,0.25782930850982666,0.05369211360812187,0.20084606111049652,-0.000701904296875,4.8939690589904785,0.021727049723267555,1.7544682577863568e-06,0.6271523237228394,0.0013774412218481302,0.0,False,1
3.5,74.74539947509766,306.4348449707031,0.25837427377700806,0.04424596205353737,0.21178998053073883,-0.00079345703125,5.096256256103516,0.02208111435174942,0.012231065891683102,0.6190487146377563,0.0008763566147536039,0.0,False,1
3.6,75.26513671875,306.4371337890625,0.25888916850090027,0.03685569763183594,0.22452692687511444,-0.0009460448054596782,5.261462211608887,0.024716032668948174,0.0008999468991532922,0.609647810459137,0.0011175664840266109,0.0,False,1
3.7,75.79989624023438,306.4395446777344,0.25884413719177246,0.03044898249208927,0.23523665964603424,-0.0006103514460846782,5.371104717254639,0.025258710607886314,-0.0016605089185759425,0.5984319448471069,0.0008394761243835092,0.0,False,1
3.8000000000000003,76.34786224365234,306.4420166015625,0.258717805147171,0.02604351006448269,0.24251244962215424,-0.00018310546875,5.496597766876221,0.025417353957891464,-0.0014540537958964705,0.5945835113525391,0.000545980641618371,0.0,False,1
3.9000000000000004,76.90734100341797,306.4446105957031,0.2586386501789093,0.02275135926902294,0.2513740062713623,-0.00042724606464616954,5.608592510223389,0.027404138818383217,-0.0008000375237315893,0.621782124042511,0.0007364032790064812,0.0,False,1
4.0,77.47732543945312,306.44732666015625,0.258608877658844,0.02025151066482067,0.26003292202949524,-0.00048828125,5.70815372467041,0.02861277014017105,-0.000336762546794489,0.5766197443008423,0.0006863706512376666,0.0,False,1
4.1000000000000005,78.05504608154297,306.4501037597656,0.2586241364479065,0.016208037734031677,0.26395249366760254,-0.000152587890625,5.768102169036865,0.028381971642374992,-0.00010542065865593031,0.5628524422645569,0.0003866368788294494,0.0,False,1
4.2,78.63218688964844,306.4529113769531,0.25868645310401917,0.008237207308411598,0.2730518579483032,-0.00021362301777116954,5.77513313293457,0.029142869636416435,-1.7163276424980722e-05,0.5510534048080444,0.0004022599314339459,0.0,False,0
4.3,79.20780944824219,306.455810546875,0.2587282061576843,0.0032989811152219772,0.27865979075431824,-0.0004272460355423391,5.764559268951416,0.030077330768108368,7.284857474587625e-06,0.5748547911643982,0.0005297574098221958,0.0,False,0
4.4,79.78237915039062,306.4587707519531,0.25874754786491394,0.0011064906138926744,0.28431275486946106,-0.0003051757230423391,5.7539191246032715,0.030099043622612953,1.1823590284620877e-05,0.6241161227226257,0.0003915302804671228,0.0,False,0
4.5,80.35588836669922,306.4617614746094,0.25875580310821533,0.00019807547505479306,0.2891780436038971,-0.00024414058134425431,5.743301868438721,0.03034946322441101,6.216920155566186e-06,0.6437053680419922,0.0003496774297673255,0.0,False,0
4.6000000000000005,80.9329833984375,306.4648132324219,0.2587016522884369,0.006693584844470024,0.29303187131881714,-0.00018310546875,5.859161376953125,0.031188050284981728,2.8605461466213455e-06,0.6464821100234985,0.00029750680550932884,0.0,False,0
4.7,81.54188537597656,306.4680480957031,0.25850221514701843,0.030476301908493042,0.2961915135383606,-0.00015258786152116954,6.193584442138672,0.0334024652838707,-1.9070306223056832e-07,0.6491621732711792,0.00031954044243320823,0.0,False,2
4.800000000000001,82.17996215820312,306.471435546875,0.2584133446216583,0.04106992483139038,0.2982422411441803,7.126086711650714e-05,6.457756996154785,0.034532394260168076,-1.735397972879582e-06,0.5000847578048706,0.00019112508744001389,0.0,False,2
4.9,82.83820343017578,306.4749450683594,0.25844046473503113,0.03783241659402847,0.2989826202392578,0.0002693762944545597,6.6117401123046875,0.03491505607962608,1.9070306223056832e-07,0.21012461185455322,7.587365689687431e-05,0.0,False,2
5.0,83.50381469726562,306.47845458984375,0.25855013728141785,0.024759434163570404,0.29942983388900757,0.00028044168720953166,6.638968467712402,0.034881528466939926,1.792608941286744e-06,0.21428033709526062,3.73260845663026e-05,0.0,False,2
5.1000000000000005,84.16783905029297,306.4819641113281,0.2586691677570343,0.010593622922897339,0.3005100190639496,0.00012048605276504532,6.6025519371032715,0.0349055752158165,2.193085265389527e-06,0.28321170806884766,7.161151734180748e-05,0.0,False,2
5.2,84.82756805419922,306.4854736328125,0.2587461471557617,0.0014070188626646996,0.3018999397754669,4.819569312530803e-07,6.560967445373535,0.03484082967042923,1.9070306223056832e-07,0.39846429228782654,7.30521569494158e-05,0.0,False,2
5.300000000000001,85.4847640991211,306.48895263671875,0.25876903533935547,-0.00131139624863863,0.3039078712463379,-3.0517576306010596e-05,6.547792434692383,0.03483377769589424,-1.3349215066682518e-07,0.46840575337409973,5.809920548927039e-05,0.0,False,2
5.4,86.14234161376953,306.492431640625,0.25875765085220337,5.464151035994291e-05,0.30838674306869507,-6.103515261202119e-05,6.5601630210876465,0.03502506762742996,2.974967856061994e-06,0.4834533631801605,7.002674828981981e-05,0.0,False,2
5.5,86.80143737792969,306.4959411621094,0.2587427794933319,0.0018168302485719323,0.3111802339553833,0.0,6.5752458572387695,0.034992728382349014,5.530388875740755e-07,0.45945003628730774,3.683161048684269e-05,0.0,False,2
5.6000000000000005,87.46192169189453,306.49945068359375,0.2587352395057678,0.002738905604928732,0.31163594126701355,3.0394185159821063e-05,6.589512348175049,0.03507498651742935,1.792608941286744e-06,0.4320618510246277,3.46890592481941e-05,0.0,False,2
5.7,88.12378692626953,306.5029602050781,0.2587321102619171,0.0031009058002382517,0.31168505549430847,5.205568595556542e-05,6.602886199951172,0.035115305334329605,-2.6698430133365036e-07,0.42594629526138306,2.5273431674577296e-05,0.0,False,2
5.800000000000001,88.78687286376953,306.5064697265625,0.258731871843338,0.0031009058002382517,0.31168505549430847,5.205568595556542e-05,6.614764213562012,0.03516973927617073,1.5637651813449338e-06,0.423409104347229,2.3843876988394186e-05,0.0,False,2
5.9,89.4510269165039,306.5099792480469,0.25873294472694397,0.0029574716463685036,0.31173545122146606,4.90000493300613e-05,6.624887466430664,0.03523145616054535,-2.6698430133365036e-07,0.4211605489253998,2.5632372853579e-05,0.0,False,2
6.0,90.11608123779297,306.5135192871094,0.25873491168022156,0.0027320755179971457,0.31184515357017517,4.179432289674878e-05,6.633288383483887,0.03529789671301842,9.916559520206647e-07,0.4198490381240845,2.8910690161865205e-05,0.0,False,2
6.1000000000000005,90.7818832397461,306.51708984375,0.25873681902885437,0.0024861886631697416,0.31230437755584717,3.2758121960796416e-05,6.640242576599121,0.03536771610379219,-1.2777105666827993e-06,0.41920652985572815,3.314261994091794e-05,0.0,False,2
6.2,91.44703674316406,306.5206604003906,0.2587493062019348,0.0010245282901450992,0.31362125277519226,3.4323351428611204e-05,6.6250786781311035,0.03526788949966431,2.2693666323903017e-06,0.4189451336860657,2.914893048000522e-05,0.0,False,0
6.300000000000001,92.1109848022461,306.52423095703125,0.2587588131427765,-0.00012294339830987155,0.31386199593544006,3.5494806070346385e-05,6.612589359283447,0.035195671021938324,4.0047643778962083e-07,0.4187663793563843,1.889627310447395e-05,0.0,False,0
6.4,92.77366638183594,306.5277404785156,0.25876384973526,-0.0007035094313323498,0.3138510584831238,4.330644151195884e-05,6.600213050842285,0.035094451159238815,1.6781871181592578e-06,0.4437427222728729,1.1146417818963528e-05,0.0,False,0
6.5,93.43513488769531,306.53125,0.25876590609550476,-0.0009767169831320643,0.31363481283187866,6.469449726864696e-05,6.587861061096191,0.0349421463906765,-1.6019057511584833e-06,0.4442758560180664,-2.8628201107494533e-06,0.0,False,0
6.6000000000000005,94.09539794921875,306.5347900390625,0.258766770362854,-0.0010996604105457664,0.3131880760192871,9.056846465682611e-05,6.575533390045166,0.03475736081600189,-1.8116792261935188e-06,0.4472411870956421,-1.782686376827769e-05,0.0,False,0
6.7,94.76513671875,306.53839111328125,0.2586793601512909,0.009323207661509514,0.30402350425720215,0.00011400483344914392,6.736254692077637,0.03560229018330574,1.8498197960070684e-06,0.45028820633888245,-3.493804615573026e-05,0.0,False,3
6.800000000000001,95.44747924804688,306.5420227050781,0.25862425565719604,0.01588701829314232,0.30196067690849304,0.00022910756524652243,6.8462042808532715,0.03585861623287201,-8.009528755792417e-07,0.4533286988735199,-5.073941792943515e-05,0.0,False,3
6.9,96.13799285888672,306.545654296875,0.25862830877304077,0.015408906154334545,0.30089783668518066,0.0002694266731850803,6.9051737785339355,0.035905078053474426,-4.1954677953981445e-07,0.2487216293811798,-6.415809184545651e-05,0.0,False,3
7.0,96.83110809326172,306.54925537109375,0.258671373128891,0.01027260348200798,0.30126699805259705,0.0002746039826888591,6.915141582489014,0.035623785108327866,-5.721092293242691e-07,0.2711655795574188,-8.967841858975589e-05,0.0,False,3
7.1000000000000005,97.52394104003906,306.55279541015625,0.25871455669403076,0.005122641567140818,0.3021564781665802,0.0002660259779077023,6.906734943389893,0.03520730137825012,1.0488669204278267e-06,0.3060399293899536,-0.00011204178736079484,0.0,False,3
7.2,98.21578979492188,306.5563049316406,0.2587405741214752,0.0020217359997332096,0.3006322681903839,0.0002830321027431637,6.898386478424072,0.034722745418548584,-5.14898317760526e-07,0.3507758378982544,-0.0001463883090764284,0.0,False,3
7.300000000000001,98.90741729736328,306.5597839355469,0.25874707102775574,0.001256754738278687,0.2975756525993347,0.00030774064362049103,6.900543689727783,0.03429989889264107,-1.0870074902413762e-06,0.37051981687545776,-0.00017000861407723278,0.0,False,3
7.4,99.59983825683594,306.563232421875,0.2587423324584961,0.0018236604519188404,0.29391607642173767,0.00035151891643181443,6.91152286529541,0.03384138271212578,-3.2419524131910293e-07,0.37255433201789856,-0.00019881731714121997,0.0,False,3
7.5,100.29359436035156,306.566650390625,0.25873562693595886,0.002629622584208846,0.2900594472885132,0.00038482199306599796,6.9257073402404785,0.033394958823919296,-2.0977338976990723e-07,0.3620370924472809,-0.0002154095855075866,0.0,False,3
7.6000000000000005,100.98870086669922,306.57000732421875,0.2587321102619171,0.003053094493225217,0.28600817918777466,0.00041916026384569705,6.938485622406006,0.032872818410396576,-2.0977338976990723e-07,0.35101932287216187,-0.00023796482128091156,0.0,False,3
7.7,101.68486022949219,306.57330322265625,0.25873225927352905,0.0030257736798375845,0.28152716159820557,0.00047062759404070675,6.948191165924072,0.0322226844727993,-1.9070306223056832e-07,0.34462305903434753,-0.0002726227103266865,0.0,False,3
7.800000000000001,102.38182067871094,306.5765686035156,0.2587345838546753,0.002752566011622548,0.2766416072845459,0.000505127536598593,6.955312252044678,0.0315525121986866,1.487483928030997e-06,0.34299105405807495,-0.0002954817027784884,0.0,False,3
7.9,103.07939910888672,306.5797424316406,0.25873714685440063,0.002452037762850523,0.27137163281440735,0.000534017919562757,6.9610490798950195,0.03084062971174717,-9.7258566711389e-07,0.3436957895755768,-0.0003172704600729048,0.0,False,3
8.0,103.77751922607422,306.5828552246094,0.2587389647960663,0.0022403020411729813,0.26562950015068054,0.0005723352660425007,6.966318130493164,0.030043568462133408,2.1740149804827524e-06,0.34455084800720215,-0.0003466318885330111,0.0,False,3
8.1,104.47612762451172,306.58587646484375,0.2587399482727051,0.0021241887006908655,0.2594648599624634,0.0006051071686670184,6.971468925476074,0.0292136799544096,-2.0977338976990723e-07,0.34458646178245544,-0.0003706912975758314,0.0,False,3
8.200000000000001,105.17526245117188,306.58880615234375,0.2587406039237976,0.0020627169869840145,0.2528517544269562,0.0006472768145613372,6.976458549499512,0.028310580179095268,6.865310524517554e-07,0.34385377168655396,-0.00039940280839800835,0.0,False,3
8.3,105.87484741210938,306.5916748046875,0.2587409019470215,0.0020149056799709797,0.24593444168567657,0.000669243570882827,6.981119155883789,0.027415087446570396,-2.479139880051662e-07,0.3428135812282562,-0.0004153614863753319,0.0,False,3
8.4,106.57489013671875,306.5944519042969,0.2587413787841797,0.0019534339662641287,0.23871517181396484,0.0006938593578524888,6.985341548919678,0.02646874450147152,1.4302730733106728e-06,0.3418535888195038,-0.00043501806794665754,0.0,False,3
8.5,107.27532196044922,306.59710693359375,0.2587420344352722,0.0018851321656256914,0.2311921864748001,0.0007188702584244311,6.989116191864014,0.025485821068286896,-4.958279760103323e-07,0.34113287925720215,-0.00045360412332229316,0.0,False,3
8.6,107.97610473632812,306.59967041015625,0.25874248147010803,0.0018168302485719323,0.2232956439256668,0.000752874300815165,6.992499351501465,0.024432063102722168,3.623358395543619e-07,0.3406215012073517,-0.000478033849503845,0.0,False,3
8.700000000000001,108.67717742919922,306.6021423339844,0.2587430477142334,0.0017553585348650813,0.21513627469539642,0.0007734675891697407,6.995564937591553,0.023385759443044662,-3.8140612446113664e-07,0.34022796154022217,-0.0004914388991892338,0.0,False,3
8.8,109.37855529785156,306.6044921875,0.2587434947490692,0.0017007170245051384,0.206703782081604,0.0007941125077195466,6.998366355895996,0.02229105867445469,-1.1823590284620877e-06,0.3398727774620056,-0.0005090779159218073,0.0,False,3
8.9,110.08019256591797,306.60675048828125,0.2587438225746155,0.0016529057174921036,0.19807501137256622,0.0008102140272967517,7.000939846038818,0.021199418231844902,1.0679372053346015e-06,0.33952242136001587,-0.0005192681564949453,0.0,False,3
9.0,110.78207397460938,306.60888671875,0.25874435901641846,0.001611924497410655,0.1892266869544983,0.0008280366309918463,7.003304958343506,0.020065033808350563,2.326577487110626e-06,0.33918526768684387,-0.0005336920730769634,0.0,False,3
9.1,111.48418426513672,306.6109619140625,0.2587445378303528,0.0015709433937445283,0.18065796792507172,0.000787356577347964,7.005472183227539,0.019127484411001205,3.814061599882734e-08,0.3388667702674866,-0.0005060949479229748,0.0,False,3
9.200000000000001,112.18649291992188,306.6128845214844,0.25874483585357666,0.0015367924934253097,0.1717844307422638,0.0008194351103156805,7.0074591636657715,0.017925649881362915,-1.220499711962475e-06,0.3385796546936035,-0.0005394150502979755,0.0,False,3
9.3,112.88898468017578,306.61468505859375,0.25874507427215576,0.0015094716800376773,0.1626848578453064,0.0008417763747274876,7.009280204772949,0.016775287687778473,2.0977338976990723e-07,0.3383289575576782,-0.0005478216335177422,0.0,False,3
9.4,113.59163665771484,306.61639404296875,0.25874537229537964,0.0014821509830653667,0.15354059636592865,0.0008452769252471626,7.010953426361084,0.015655236318707466,-1.5828354662517086e-06,0.3381062150001526,-0.0005482420092448592,0.0,False,3
9.5,114.29446411132812,306.6179504394531,0.25874558091163635,0.0014616603730246425,0.1443418264389038,0.0008488275343552232,7.012491703033447,0.014516406692564487,-3.0512492799061874e-07,0.33790820837020874,-0.0005523586296476424,0.0,False,3
9.600000000000001,114.99742889404297,306.6194152832031,0.2587457299232483,0.00144116987939924,0.13508941233158112,0.0008506369194947183,7.013913631439209,0.013373702764511108,-1.1442184586485382e-06,0.3377280533313751,-0.0005554029485210776,0.0,False,3
9.700000000000001,115.70053100585938,306.62078857421875,0.258745938539505,0.0014206792693585157,0.12586316466331482,0.0008459891541860998,7.015223979949951,0.012258828617632389,1.7163276879728073e-06,0.33756813406944275,-0.0005521890707314014,0.0,False,3
9.8,116.40375518798828,306.6220703125,0.25874611735343933,0.0014070188626646996,0.11667820811271667,0.0008404325344599783,7.016438007354736,0.011147103272378445,2.193085265389527e-06,0.33741846680641174,-0.0005497501697391272,0.0,False,3
9.9,117.10709381103516,306.62322998046875,0.25874611735343933,0.0013933584559708834,0.1075100228190422,0.0008389147697016597,7.01756477355957,0.010029816068708897,8.009528755792417e-07,0.33729052543640137,-0.0005491590709425509,0.0,False,3
10.0,117.810546875,306.6242370605469,0.25874626636505127,0.001379698165692389,0.09837894141674042,0.0008327429532073438,7.018609523773193,0.008924717083573341,2.0977338976990723e-07,0.33717021346092224,-0.0005463029374368489,0.0,False,3
10.100000000000001,118.51409149169922,306.62518310546875,0.2587464451789856,0.0013660377589985728,0.0893702432513237,0.0008199167205020785,7.0195817947387695,0.007859762758016586,-8.581638439864037e-07,0.3370634913444519,-0.0005371879669837654,0.0,False,3
10.200000000000001,119.21773529052734,306.6259765625,0.258746474981308,0.0013592075556516647,0.0805625468492508,0.0007985422271303833,7.0204901695251465,0.006838287692517042,-3.814061599882734e-08,0.33697015047073364,-0.0005236614961177111,0.0,False,3
10.3,119.92145538330078,306.626708984375,0.2587466239929199,0.0013523773523047566,0.07178064435720444,0.0007972781895659864,7.021340847015381,0.005759274121373892,-7.818825906724669e-07,0.33688560128211975,-0.0005259298486635089,0.0,False,3
10.4,120.62525939941406,306.6272888183594,0.25874653458595276,0.0013455471489578485,0.06318594515323639,0.0007795853889547288,7.022134304046631,0.004769270773977041,-1.220499711962475e-06,0.33680737018585205,-0.0005101371789351106,0.0,False,3
10.5,121.32914733886719,306.6278381347656,0.25874680280685425,0.0013387170620262623,0.05476365238428116,0.0007630512700416148,7.022879600524902,0.003779010148718953,1.5828354662517086e-06,0.33673760294914246,-0.0005009597516618669,0.0,False,3
10.600000000000001,122.0331039428711,306.6282043457031,0.25874680280685425,0.0013318868586793542,0.04652014747262001,0.0007465187809430063,7.02358341217041,0.002818044275045395,-1.5637651813449338e-06,0.33668044209480286,-0.000489516300149262,0.0,False,3
10.700000000000001,122.73711395263672,306.6285400390625,0.25874683260917664,0.001325056655332446,0.038475628942251205,0.0007272429065778852,7.0242486000061035,0.0018858378753066063,3.432655262258777e-07,0.33662715554237366,-0.0004769988590851426,0.0,False,3
10.8,123.44120025634766,306.6287536621094,0.2587469518184662,0.001318226451985538,0.03066914901137352,0.0007056672475300729,7.024878978729248,0.000994466827251017,1.907030799941367e-08,0.33657628297805786,-0.00046167869004420936,0.0,False,3
10.9,124.14533996582031,306.6288757324219,0.2587469816207886,0.00131139624863863,0.023004628717899323,0.0006949140224605799,7.02547550201416,8.640680607641116e-05,-7.05601394201949e-07,0.33653175830841064,-0.0004551192687358707,0.0,False,3
11.0,124.84954071044922,306.62890625,0.25874701142311096,0.0013045660452917218,0.01559844333678484,0.0006702335085719824,7.026041507720947,-0.0007445660303346813,-3.623358395543619e-07,0.3364931046962738,-0.00043633944005705416,0.0,False,3
11.100000000000001,125.55379486083984,306.62884521484375,0.25874707102775574,0.0013045660452917218,0.008465445600450039,0.0006442625308409333,7.026582717895508,-0.0015484675532206893,-4.0047643778962083e-07,0.3364603519439697,-0.0004200614639557898,0.0,False,3
11.200000000000001,126.25810241699219,306.62872314453125,0.2587471008300781,0.0013045660452917218,0.0016116350889205933,0.0006178077310323715,7.027099609375,-0.002314310520887375,-4.958279760103323e-07,0.3364322781562805,-0.0004027089453302324,0.0,False,3
11.3,126.96245574951172,306.6285400390625,0.2587471306324005,0.0013045660452917218,-0.00506591796875,0.0006029227515682578,7.027596473693848,-0.0030864763539284468,1.3349215066682518e-07,0.3364044725894928,-0.0003929247322957963,0.0,False,3
11.4,127.66686248779297,306.6282043457031,0.2587471604347229,0.0013045660452917218,-0.011474608443677425,0.0005790945724584162,7.028074264526367,-0.00379380164667964,7.437419640154985e-07,0.3363817036151886,-0.00037437694845721126,0.0,False,3
11.5,128.37130737304688,306.6278991699219,0.2587472200393677,0.0013045660452917218,-0.017120361328125,0.0005025676218792796,7.028535842895508,-0.0042647006921470165,9.535153822071152e-07,0.33636048436164856,-0.00031964611844159663,0.0,False,3
11.600000000000001,129.0758056640625,306.6274719238281,0.2587472200393677,0.0013045660452917218,-0.02267455868422985,0.0004996596253477037,7.028979301452637,-0.004961615893989801,8.96304470643372e-07,0.3363417685031891,-0.0003286308783572167,0.0,False,3
11.700000000000001,129.7803497314453,306.62701416015625,0.25874724984169006,0.0013045660452917218,-0.0281372033059597,0.0004984773695468903,7.029407024383545,-0.005595229100435972,5.721092293242691e-07,0.3363247811794281,-0.0003194942546542734,0.0,False,3
11.8,130.48492431640625,306.62646484375,0.2587472200393677,0.0013045660452917218,-0.0333251953125,0.0004764325567521155,7.029821395874023,-0.0061540380120277405,7.818825906724669e-07,0.3363139033317566,-0.0003004019381478429,0.0,False,3
11.9,131.18954467773438,306.6258850097656,0.25874724984169006,0.0013045660452917218,-0.038360595703125,0.0004660845152102411,7.0302252769470215,-0.0067376974038779736,1.0107263506142772e-06,0.33630451560020447,-0.0002935271477326751,0.0,False,3
12.0,131.8942108154297,306.6252136230469,0.25874724984169006,0.0013045660452917218,-0.043426513671875,0.00047392293345183134,7.030618667602539,-0.007372336927801371,7.628123199765469e-08,0.3362959027290344,-0.0002979763667099178,0.0,False,3
12.100000000000001,132.59890747070312,306.62451171875,0.25874751806259155,0.0013045660452917218,-0.0485839769244194,0.0004895331803709269,7.031003952026367,-0.008039765991270542,-8.200231604860164e-07,0.3362872004508972,-0.0003060612070839852,0.0,False,3
12.200000000000001,133.3036346435547,306.6237487792969,0.2587474286556244,0.0013045660452917218,-0.0537414513528347,0.0004922583466395736,7.031381130218506,-0.008666620589792728,1.3730621049035108e-06,0.33628082275390625,-0.00030341692036017776,0.0,False,3
12.3,134.00840759277344,306.6228942871094,0.25874730944633484,0.0013045660452917218,-0.058807373046875,0.0004804269992746413,7.03175163269043,-0.00925704836845398,-1.2014294270557002e-06,0.33627352118492126,-0.00029558653477579355,0.0,False,3
12.4,134.7132110595703,306.6219787597656,0.25874727964401245,0.0013045660452917218,-0.0638427585363388,0.0004765202465932816,7.032112121582031,-0.009868144989013672,-1.3349215066682518e-07,0.336269348859787,-0.00029478914802893996,0.0,False,3
12.5,135.41806030273438,306.6210021972656,0.25874730944633484,0.0013045660452917218,-0.0686645433306694,0.00045521906577050686,7.03246545791626,-0.010400515981018543,-7.628123199765469e-08,0.33626487851142883,-0.0002795070467982441,0.0,False,3
12.600000000000001,136.12294006347656,306.6199951171875,0.2587473690509796,0.0013045660452917218,-0.07342529296875,0.0004507320118136704,7.032812118530273,-0.010981381870806217,1.7544682577863568e-06,0.3362646698951721,-0.00027948321076110005,0.0,False,3
12.700000000000001,136.82785034179688,306.618896484375,0.2587474286556244,0.0013045660452917218,-0.0780944749712944,0.00044089346192777157,7.033156394958496,-0.01152131799608469,-1.8688900809138431e-06,0.3362656533718109,-0.0002712332643568516,0.0,False,3
12.8,137.53280639648438,306.6177673339844,0.2587473690509796,0.0013045660452917218,-0.0826721116900444,0.00043241993989795446,7.033493995666504,-0.012055980041623116,-4.1954677953981445e-07,0.33626610040664673,-0.0002653668634593487,0.0,False,3
12.9,138.23777770996094,306.6166076660156,0.25874730944633484,0.0013045660452917218,-0.0870361253619194,0.0004103948886040598,7.0338287353515625,-0.012532546184957027,-3.2419524131910293e-07,0.33626362681388855,-0.00025085682864300907,0.0,False,3
13.0,138.9427947998047,306.6153564453125,0.25874730944633484,0.0013045660452917218,-0.0913085862994194,0.0004023929068353027,7.034159183502197,-0.013037838973104954,-2.135874410669203e-06,0.33626681566238403,-0.00024749207659624517,0.0,False,3
13.100000000000001,139.6478271484375,306.61407470703125,0.25874748826026917,0.0013045660452917218,-0.0955200120806694,0.00039899678085930645,7.034487724304199,-0.013538855127990246,-1.2777105666827993e-06,0.3362674117088318,-0.00024400747497566044,0.0,False,3
13.200000000000001,140.35292053222656,306.6127014160156,0.2587474286556244,0.0013045660452917218,-0.0995483323931694,0.0003854059032164514,7.0348124504089355,-0.013982675038278103,-3.2419524131910293e-07,0.3362690806388855,-0.00023122364655137062,0.0,False,3
13.3,141.05801391601562,306.611328125,0.25874748826026917,0.0013045660452917218,-0.1034240648150444,0.00037193321622908115,7.035134315490723,-0.014424338936805725,-2.6698430133365036e-07,0.33627066016197205,-0.00022320730204228312,0.0,False,3
13.4,141.76316833496094,306.60992431640625,0.258747398853302,0.0013045660452917218,-0.1071777269244194,0.00035965151619166136,7.035453796386719,-0.01485083531588316,-1.4493433582174475e-06,0.3362736105918884,-0.00021519005531445146,0.0,False,3
13.5,142.4683380126953,306.6084289550781,0.2587473690509796,0.0013045660452917218,-0.1108093112707138,0.00034741577110253274,7.035771369934082,-0.015261314809322357,-6.102498559812375e-07,0.33627691864967346,-0.00020717192091979086,0.0,False,3
13.600000000000001,143.1735382080078,306.60693359375,0.25874730944633484,0.0013045660452917218,-0.1140136569738388,0.0003026600752491504,7.0360870361328125,-0.015524064190685749,1.907030799941367e-08,0.3362800180912018,-0.0001749525690684095,0.0,False,3
13.700000000000001,143.87876892089844,306.60540771484375,0.25874751806259155,0.0013045660452917218,-0.11715696007013321,0.00030312148737721145,7.036397457122803,-0.015928275883197784,1.220499711962475e-06,0.3362833261489868,-0.00018189252295996994,0.0,False,3
13.8,144.58404541015625,306.60382080078125,0.258747398853302,0.0013045660452917218,-0.1202697679400444,0.00030345795676112175,7.036706924438477,-0.016291189938783646,-3.0512492799061874e-07,0.33628755807876587,-0.00017679149459581822,0.0,False,3
13.9,145.28933715820312,306.60223388671875,0.2587473690509796,0.0013045660452917218,-0.1232604831457138,0.00029189555789344013,7.037015914916992,-0.01661992073059082,-2.6698430133365036e-07,0.33629530668258667,-0.00016757685807533562,0.0,False,3
14.0,145.99465942382812,306.6005859375,0.2587473690509796,0.0013045660452917218,-0.1260986328125,0.00028155805193819106,7.037322998046875,-0.016934825107455254,3.814061599882734e-08,0.33629941940307617,-0.00015955341223161668,0.0,False,3
14.100000000000001,146.70001220703125,306.5989074707031,0.25874757766723633,0.0013045660452917218,-0.1287841647863388,0.00026500277454033494,7.037628650665283,-0.017224770039319992,1.163288743555313e-06,0.3363038897514343,-0.00014980048581492156,0.0,False,3
14.200000000000001,147.4053955078125,306.59716796875,0.258747398853302,0.0013045660452917218,-0.13128662109375,0.0002496757952030748,7.037933349609375,-0.01748177409172058,-1.5256244978445466e-06,0.336309015750885,-0.0001377815060550347,0.0,False,3
14.3,148.11082458496094,306.5954284667969,0.2587473690509796,0.0013045660452917218,-0.1337280124425888,0.00024465378373861313,7.03823709487915,-0.017774252220988274,7.05601394201949e-07,0.33631521463394165,-0.000136788614327088,0.0,False,3
14.4,148.81625366210938,306.59368896484375,0.25874730944633484,0.0013045660452917218,-0.13604736328125,0.00023520350805483758,7.038541316986084,-0.01801651157438755,1.106077775148151e-06,0.33632051944732666,-0.00012637728650588542,0.0,False,3
14.5,149.521728515625,306.5919189453125,0.25874730944633484,0.0013045660452917218,-0.138153076171875,0.00021246966207399964,7.038845062255859,-0.01822059601545334,3.2419524131910293e-07,0.3363255560398102,-0.00011316347809042782,0.0,False,3
14.600000000000001,150.22723388671875,306.590087890625,0.2587473690509796,0.0013045660452917218,-0.1401977390050888,0.00021015506354160607,7.03914737701416,-0.018463078886270523,-1.7163276879728073e-06,0.3363296687602997,-0.00011216783605050296,0.0,False,3
14.700000000000001,150.93276977539062,306.5882263183594,0.25874748826026917,0.0013045660452917218,-0.1421813815832138,0.00020426650007721037,7.03944730758667,-0.01868436299264431,-8.390935590796289e-07,0.336335152387619,-0.00010693955846363679,0.0,False,3
14.8,151.63833618164062,306.58636474609375,0.258747398853302,0.0013045660452917218,-0.14398193359375,0.00018791388720273972,7.03974723815918,-0.018850117921829224,-2.479139880051662e-07,0.3363420069217682,-9.360408876091242e-05,0.0,False,3
14.9,152.34393310546875,306.5845031738281,0.2587473690509796,0.0013045660452917218,-0.145599365234375,0.0001735011610435322,7.040044784545898,-0.019012432545423508,1.1442184444376835e-07,0.33634886145591736,-8.503603748977184e-05,0.0,False,3
15.0,153.049560546875,306.5826416015625,0.2587473690509796,0.0013045660452917218,-0.147186279296875,0.00017229166405741125,7.040343284606934,-0.019205808639526367,-3.432655262258777e-07,0.3363548517227173,-8.511001215083525e-05,0.0,False,3
15.100000000000001,153.75521850585938,306.58074951171875,0.25874730944633484,0.0013045660452917218,-0.1486511081457138,0.00016389574739150703,7.040641784667969,-0.019350601360201836,2.288436888875367e-07,0.33636319637298584,-7.576567440992221e-05,0.0,False,3
15.200000000000001,154.4608917236328,306.5788269042969,0.2587474286556244,0.0013045660452917218,-0.14996337890625,0.0001467949041398242,7.040938377380371,-0.01946854591369629,1.220499711962475e-06,0.33636805415153503,-6.53475581202656e-05,0.0,False,3
15.3,155.16661071777344,306.5768737792969,0.25874730944633484,0.0013045660452917218,-0.1512145847082138,0.00014464296691585332,7.04123592376709,-0.01961541175842285,-2.3837885692046257e-06,0.3363740146160126,-6.422710430342704e-05,0.0,False,3
15.4,155.87234497070312,306.57489013671875,0.25874751806259155,0.0013045660452917218,-0.15234375,0.00013345071056392044,7.04153299331665,-0.019718049094080925,-9.535153822071152e-07,0.33638250827789307,-5.488044553203508e-05,0.0,False,3
15.5,156.578125,306.5728759765625,0.2587474286556244,0.0013045660452917218,-0.15325927734375,0.00011016208009095863,7.041830062866211,-0.01976572535932064,-1.1251480600549257e-06,0.33638718724250793,-3.927422221750021e-05,0.0,False,3
15.600000000000001,157.28392028808594,306.5709228515625,0.2587474286556244,0.0013045660452917218,-0.154144287109375,0.00011018603981938213,7.042128086090088,-0.019878128543496132,-4.576873777750734e-07,0.3363937735557556,-4.172754779574461e-05,0.0,False,3
15.700000000000001,157.98974609375,306.56890869140625,0.2587474286556244,0.0013045660452917218,-0.154937744140625,0.00010341818415326998,7.04242467880249,-0.01994556188583374,-2.288436888875367e-07,0.33640044927597046,-3.410697536310181e-05,0.0,False,3
15.8,158.69561767578125,306.5669250488281,0.258747398853302,0.0013045660452917218,-0.155609130859375,9.12636678549461e-05,7.042722702026367,-0.01999269612133503,-4.1954677953981445e-07,0.33640483021736145,-2.594918623799458e-05,0.0,False,3
15.9,159.40150451660156,306.56494140625,0.258747398853302,0.0013045660452917218,-0.1562499850988388,9.464244067203254e-05,7.043019771575928,-0.020076362416148186,-5.7210922221884175e-08,0.33641287684440613,-2.762568328762427e-05,0.0,False,3
16.0,160.107421875,306.5629577636719,0.258747398853302,0.0013045660452917218,-0.15679931640625,8.65007023094222e-05,7.0433173179626465,-0.02011503465473652,-3.8140612446113664e-07,0.33641746640205383,-1.9884053472196683e-05,0.0,False,3
16.1,160.81336975097656,306.56097412109375,0.258747398853302,0.0013045660452917218,-0.1572875678539276,7.885944796726108e-05,7.043612480163574,-0.020158331841230392,7.628123199765469e-08,0.33642396330833435,-1.6254609363386407e-05,0.0,False,3
16.2,161.51934814453125,306.5589904785156,0.2587473690509796,0.0013045660452917218,-0.157745361328125,7.65187360229902e-05,7.043906211853027,-0.020207390189170837,-7.628123199765469e-08,0.3364299535751343,-1.488972338847816e-05,0.0,False,3
16.3,162.225341796875,306.5570068359375,0.2587473690509796,0.0013045660452917218,-0.1581115573644638,6.832237704657018e-05,7.044200420379639,-0.020222362130880356,4.576873777750734e-07,0.3364381790161133,-7.683043804718181e-06,0.0,False,3
16.400000000000002,162.93138122558594,306.5550231933594,0.258747398853302,0.0013045660452917218,-0.1583862155675888,5.986856194795109e-05,7.04449462890625,-0.020234690979123116,2.3647180569241755e-06,0.33644697070121765,-2.8600152290891856e-06,0.0,False,3
16.5,163.637451171875,306.5530090332031,0.25874748826026917,0.0013045660452917218,-0.1585998386144638,5.435420462163165e-05,7.044788837432861,-0.0202469602227211,5.911795142310439e-07,0.33645322918891907,2.349552232772112e-07,0.0,False,3
16.6,164.34356689453125,306.551025390625,0.2587474286556244,0.0013045660452917218,-0.1587524265050888,5.1568044000305235e-05,7.045083045959473,-0.020256413146853447,1.0107263506142772e-06,0.33645981550216675,2.793902240227908e-06,0.0,False,3
16.7,165.0496826171875,306.5490417480469,0.2587474286556244,0.0013045660452917218,-0.1588744968175888,4.900204294244759e-05,7.045377254486084,-0.020263999700546265,1.029796635521052e-06,0.33646664023399353,4.816763976123184e-06,0.0,False,3
16.8,165.7558135986328,306.54705810546875,0.2587474286556244,0.0013045660452917218,-0.1588744968175888,4.900204294244759e-05,7.0456719398498535,-0.020261220633983612,1.0488669204278267e-06,0.3364733159542084,8.032075129449368e-06,0.0,False,3
16.900000000000002,166.46200561523438,306.5450439453125,0.2587474286556244,0.0013045660452917218,-0.1588744968175888,4.900204294244759e-05,7.045966625213623,-0.020261086523532867,1.0488669204278267e-06,0.3364798426628113,9.519153536530212e-06,0.0,False,3
17.0,167.16824340820312,306.5430603027344,0.2587474286556244,0.0013045660452917218,-0.1588744968175888,4.900204294244759e-05,7.046261310577393,-0.02024240978062153,9.535153822071152e-07,0.33648544549942017,1.3927212421549484e-05,0.0,False,3
17.1,167.8744659423828,306.54107666015625,0.25874748826026917,0.0013045660452917218,-0.1587524265050888,3.865993130602874e-05,7.04655647277832,-0.020201614126563072,1.353991819996736e-06,0.33649301528930664,2.0600728021236137e-05,0.0,False,3
17.2,168.58070373535156,306.5390625,0.2587474286556244,0.0013045660452917218,-0.158660888671875,4.0854203689377755e-05,7.046849727630615,-0.020197300240397453,4.1954677953981445e-07,0.33649903535842896,1.7976155504584312e-05,0.0,False,3
17.3,169.28700256347656,306.5370788574219,0.2587474286556244,0.0013045660452917218,-0.1585082858800888,3.7964546208968386e-05,7.047142028808594,-0.020165514200925827,8.200231604860164e-07,0.3365049362182617,2.1848791220691055e-05,0.0,False,3
17.400000000000002,169.99337768554688,306.53509521484375,0.2587926387786865,0.004029811359941959,-0.1582641452550888,1.9758157577598467e-05,7.0474371910095215,-0.020101718604564667,0.004087605979293585,0.3365135192871094,2.62582216237206e-05,0.0,False,3
17.5,170.69976806640625,306.5331115722656,0.25894880294799805,0.010129169560968876,-0.1580810546875,3.013839705090504e-05,7.047700881958008,-0.020106084644794464,0.001032313914038241,0.33652162551879883,2.2561544028576463e-05,0.0,False,3
17.6,171.40611267089844,306.5310974121094,0.25898033380508423,0.01032041572034359,-0.1578674167394638,3.7866375350859016e-05,7.048011779785156,-0.020072156563401222,9.134677384281531e-06,0.33652448654174805,2.5361947336932644e-05,0.0,False,3
17.7,172.11253356933594,306.5290832519531,0.25897011160850525,0.009821811690926552,-0.1576232761144638,3.3779295335989445e-05,7.048314094543457,-0.020037425681948662,-0.0001913133164634928,0.336570143699646,2.6970439648721367e-05,0.0,False,3
17.8,172.81895446777344,306.527099609375,0.25904741883277893,0.004746981430798769,-0.1573791354894638,3.0904782761354e-05,7.048615455627441,-0.019945921376347542,0.0012621300993487239,0.33652639389038086,3.376489257789217e-05,0.0,False,3
17.900000000000002,173.52540588378906,306.5251159667969,0.2591428756713867,0.000300528306979686,-0.1571655124425888,3.6121433367952704e-05,7.048940658569336,-0.019973915070295334,0.00024263151863124222,0.3365398943424225,2.6611858629621565e-05,0.0,False,3
18.0,174.23187255859375,306.52313232421875,0.259146124124527,0.00031418868456967175,-0.156890869140625,2.730086816882249e-05,7.049210548400879,-0.019933396950364113,-5.6371827668044716e-05,0.3365449905395508,3.006856786669232e-05,0.0,False,3
18.1,174.93841552734375,306.5211181640625,0.25913363695144653,0.0007718113483861089,-0.1566162109375,3.022005330421962e-05,7.04948616027832,-0.019910233095288277,-9.067930659512058e-05,0.3365205228328705,2.76840255537536e-05,0.0,False,3
18.2,175.64498901367188,306.5191345214844,0.25912386178970337,0.001072339597158134,-0.1570739597082138,0.00011238903971388936,7.049770355224609,-0.020191244781017303,-5.900353062315844e-05,0.3365868926048279,-2.935994416475296e-05,0.0,False,3
18.3,176.35157775878906,306.5167541503906,0.2591187357902527,0.0012157736346125603,-0.173919677734375,0.001982476096600294,7.050042629241943,-0.027477489784359932,-2.814777326420881e-05,0.3365919589996338,-0.0013469697441905737,0.0,False,3
18.400000000000002,177.05816650390625,306.5122375488281,0.25911659002304077,0.0012772453483194113,-0.2706908583641052,0.01103430800139904,7.050028324127197,-0.06387239694595337,-1.123241145251086e-05,0.3365912139415741,-0.007458704989403486,0.0,False,3
18.5,177.7646026611328,306.50146484375,0.25911635160446167,0.0012430943315848708,-0.5743407607078552,0.034152694046497345,7.047983169555664,-0.16219064593315125,-3.0703195079695433e-06,0.33658620715141296,-0.02251569740474224,0.0,False,3
18.6,178.4703826904297,306.4779357910156,0.2591188848018646,0.000956226431299001,-1.248291015625,0.07471343129873276,7.038254737854004,-0.350641131401062,-3.241952072130516e-06,0.3366817235946655,-0.04851139336824417,0.0,False,3
18.7,179.1737823486328,306.43145751953125,0.25912776589393616,-6.147169915493578e-05,-2.5236518383026123,0.1393703818321228,7.004212379455566,-0.6776763796806335,-8.73420049174456e-06,0.3375341594219208,-0.09143389761447906,0.0,False,3
18.8,179.87359619140625,306.3575744628906,0.259135901927948,-0.0010381886968389153,-4.2611403465271,0.1838025450706482,6.957613468170166,-0.9975413084030151,-8.429075933236163e-06,0.34059977531433105,-0.11651849001646042,0.0,False,3
18.900000000000002,180.569580078125,306.2579345703125,0.25907424092292786,-0.005218264181166887,-6.166446685791016,0.1948881447315216,6.913385391235352,-1.2577455043792725,-0.0037401162553578615,0.350003719329834,-0.1218329668045044,0.0,False,3
19.0,181.26202392578125,306.1351623535156,0.25893181562423706,-0.01047067902982235,-8.060646057128906,0.18007317185401917,6.872025489807129,-1.4781997203826904,-0.0009000230929814279,0.3502108156681061,-0.1185130774974823,0.0,False,3
19.1,181.94956970214844,305.9875793457031,0.25890854001045227,-0.010798528790473938,-10.039351463317871,0.18122847378253937,6.809453964233398,-1.7435317039489746,2.814777326420881e-05,0.3447314202785492,-0.12682437896728516,0.0,False,3
19.200000000000003,182.6316680908203,305.81610107421875,0.25891947746276855,-0.010258943773806095,-12.021686553955078,0.17669588327407837,6.748212814331055,-1.9721919298171997,0.0001951845915755257,0.3401753902435303,-0.12444376200437546,0.0,False,3
19.3,183.3091583251953,305.6251220703125,0.2588423192501068,-0.0050065284594893456,-13.822589874267578,0.15566539764404297,6.703949928283691,-2.1297786235809326,-0.001287932274863124,0.34261131286621094,-0.10930760204792023,0.0,False,3
19.400000000000002,183.97802734375,305.4082336425781,0.2587502598762512,-0.0011611321242526174,-15.855423927307129,0.17979007959365845,6.586827754974365,-2.4481680393218994,-0.0002610152878332883,0.3409532308578491,-0.13483701646327972,0.0,False,3
19.5,184.63189697265625,305.15606689453125,0.2587633430957794,-0.0032033585011959076,-18.435644149780273,0.24118179082870483,6.389140605926514,-2.8796584606170654,3.377351458766498e-05,0.33800259232521057,-0.17646761238574982,0.0,False,3
19.6,185.2633819580078,304.8610534667969,0.258802592754364,-0.006898490712046623,-21.679370880126953,0.3123476505279541,6.102995872497559,-3.385061264038086,6.020495857228525e-05,0.3500155806541443,-0.22405187785625458,0.0,False,3
19.700000000000003,185.88059997558594,304.53564453125,0.25879696011543274,-0.005614415276795626,-24.62220001220703,0.2685602605342865,6.006152629852295,-3.5804977416992188,6.693678005831316e-05,0.36609816551208496,-0.17854522168636322,0.0,False,3
19.8,186.49742126464844,304.2026062011719,0.25877147912979126,-0.0021378491073846817,-26.364179611206055,0.1230371966958046,6.096175193786621,-3.4659862518310547,6.50106740067713e-05,0.3829997479915619,-0.08515810966491699,0.0,False,3
19.900000000000002,187.09829711914062,303.8435974121094,0.2587879002094269,-0.0035721887834370136,-28.58220863342285,0.1837833970785141,5.7979912757873535,-3.9119644165039062,8.963043910625856e-06,0.3388512432575226,-0.16829806566238403,0.0,False,3
20.0,187.65606689453125,303.43695068359375,0.25887104868888855,-0.01309347152709961,-32.3412971496582,0.37228724360466003,5.1078104972839355,-4.614819049835205,-5.7935591030400246e-05,0.3276790976524353,-0.3324056565761566,0.0,False,3
20.1,188.17007446289062,302.9847412109375,0.25887176394462585,-0.013674037531018257,-36.65458679199219,0.413711279630661,4.778132438659668,-4.957620620727539,-3.793084033532068e-05,0.36908289790153503,-0.28040066361427307,0.0,False,3
20.200000000000003,188.6795654296875,302.5186462402344,0.2588014304637909,-0.005798830185085535,-39.304542541503906,0.20494836568832397,4.986286163330078,-4.816407680511475,7.019779877737164e-05,0.48423874378204346,-0.11898882687091827,0.0,False,3
20.3,189.18666076660156,302.0412902832031,0.2587644159793854,-0.0008879245724529028,-41.16379928588867,0.11671508103609085,4.913392066955566,-4.948119163513184,3.720616950886324e-05,0.37627965211868286,-0.11378157138824463,0.0,False,3
20.400000000000002,189.65374755859375,301.53253173828125,0.2588381767272949,-0.00918660406023264,-44.325843811035156,0.292611688375473,4.09216833114624,-5.5133538246154785,-2.917757046816405e-05,0.3212703764438629,-0.33772149682044983,0.0,False,3
20.5,190.03173828125,300.98065185546875,0.2589767277240753,-0.0255107544362545,-49.77475357055664,0.5348345637321472,3.0311355590820312,-5.987845420837402,-0.00012798082025256008,0.31795763969421387,-0.4365629553794861,0.0,False,3
20.6,190.36329650878906,300.3992004394531,0.2589069604873657,-0.01846200041472912,-54.60726547241211,0.44360560178756714,2.8822426795959473,-6.1244378089904785,1.8269354768563062e-05,0.4855523109436035,-0.2894934415817261,0.0,False,3
20.700000000000003,190.7117919921875,299.81927490234375,0.25882598757743835,-0.008940717205405235,-56.36627960205078,0.03745489940047264,3.7115049362182617,-5.637650012969971,0.00013677224342245609,0.5684958696365356,0.07336844503879547,0.0,False,3
20.8,191.09860229492188,299.25897216796875,0.2587539851665497,0.000594226410612464,-55.781471252441406,-0.1796569675207138,3.970024347305298,-5.539130210876465,1.7773525541997515e-05,0.3511483371257782,0.046773917973041534,0.0,False,3
20.900000000000002,191.46066284179688,298.6823425292969,0.25874876976013184,0.001202113227918744,-56.901710510253906,0.06367809325456619,3.2436206340789795,-5.959282875061035,1.2300348316784948e-05,0.4292386472225189,-0.16949470341205597,0.0,False,3
21.0,191.74960327148438,298.07928466796875,0.2588486671447754,-0.010135999880731106,-60.62296676635742,0.3920021057128906,2.1069133281707764,-6.294153690338135,-8.184975740732625e-05,0.33276522159576416,-0.48011183738708496,0.0,False,3
21.1,191.94569396972656,297.4576721191406,0.25893092155456543,-0.02038128301501274,-66.15157318115234,0.5677997469902039,1.2040408849716187,-6.471035480499268,-0.0001246435276698321,0.43155181407928467,-0.4099956154823303,0.0,False,3
21.200000000000003,192.1262664794922,296.8222351074219,0.25881001353263855,-0.007506377529352903,-69.57617950439453,0.2665311098098755,1.7812120914459229,-6.417781352996826,0.00012199275806779042,0.5796887874603271,-0.08788558840751648,0.0,False,3
21.3,192.3607635498047,296.1983642578125,0.25876951217651367,-0.0015299622900784016,-69.21353912353516,-0.1756591796875,2.716675281524658,-6.062901496887207,7.441233901772648e-05,0.5046696066856384,0.15334050357341766,0.0,False,3
21.400000000000002,192.6155242919922,295.5776062011719,0.25870761275291443,0.006051547359675169,-68.4917984008789,-0.1687316596508026,2.5571625232696533,-6.2134246826171875,1.0889145414694212e-05,0.35771676898002625,0.017754338681697845,0.0,False,3
21.5,192.82843017578125,294.9427795410156,0.258741170167923,0.0022744529414922,-70.0532455444336,0.1468399316072464,1.6211479902267456,-6.462601661682129,7.589982487843372e-06,0.45294898748397827,-0.22147563099861145,0.0,False,3
21.6,192.9556427001953,294.30010986328125,0.2588566541671753,-0.010955622419714928,-74.27641296386719,0.4614465534687042,0.4559268057346344,-6.518315315246582,-0.00011068406456615776,0.34666338562965393,-0.40266871452331543,0.0,False,3
21.700000000000003,193.0311737060547,293.649658203125,0.25880885124206543,-0.00646818894892931,-78.3706283569336,0.4067268669605255,0.33274003863334656,-6.601360321044922,-5.28247483089217e-06,0.4865502715110779,-0.24327881634235382,0.0,False,3
21.8,193.12966918945312,292.9953918457031,0.2587641179561615,-0.0013455471489578485,-79.49742126464844,0.008581198751926422,1.298409104347229,-6.468210220336914,0.00010976868361467496,0.5869932174682617,0.09736905992031097,0.0,False,3
21.900000000000002,193.27931213378906,292.34735107421875,0.2587215304374695,0.004589886870235205,-78.21581268310547,-0.2303161770105362,1.722212791442871,-6.435708522796631,1.2967809652764117e-06,0.3730483949184418,0.09930266439914703,0.0,False,3
22.0,193.4207000732422,291.69183349609375,0.25868794322013855,0.008366981521248817,-78.09879302978516,-0.0658264011144638,1.3071200847625732,-6.580752849578857,2.1339672457543202e-05,0.4606305658817291,-0.030847609043121338,0.0,False,3
22.1,193.51885986328125,291.02862548828125,0.25872379541397095,0.00443279230967164,-79.88579559326172,0.19945500791072845,0.4892999529838562,-6.662619590759277,-1.4874839507683646e-05,0.37083256244659424,-0.21070414781570435,0.0,False,3
22.200000000000003,193.56329345703125,290.3617858886719,0.25874292850494385,0.002042226493358612,-82.87664031982422,0.32091736793518066,0.021549824625253677,-6.69960355758667,-4.6760393161093816e-05,0.37666571140289307,-0.20594139397144318,0.0,False,3
22.3,193.6058807373047,289.6897888183594,0.25871577858924866,0.0047674719244241714,-84.40367889404297,0.13017134368419647,0.38145557045936584,-6.732086181640625,3.87508662242908e-05,0.4565321207046509,-0.050908178091049194,0.0,False,3
22.400000000000002,193.67942810058594,289.017333984375,0.25871542096138,0.00513630174100399,-83.97069549560547,-0.1044921800494194,0.9224647879600525,-6.695400714874268,1.7811667930800468e-05,0.40613919496536255,0.06595413386821747,0.0,False,3
22.5,193.75782775878906,288.341796875,0.258703351020813,0.006591132376343012,-83.69232177734375,-0.0738525316119194,0.7810031771659851,-6.75177001953125,3.756850446734461e-06,0.3726519048213959,0.004927642643451691,0.0,False,3
22.6,193.81076049804688,287.6627502441406,0.25871506333351135,0.005259245168417692,-84.63567352294922,0.086340993642807,0.3190537095069885,-6.79596471786499,-1.8498197960070684e-06,0.39534562826156616,-0.08565282821655273,0.0,False,3
22.700000000000003,193.8372039794922,286.98052978515625,0.25871923565864563,0.0047674719244241714,-86.16323852539062,0.16098234057426453,0.03784318268299103,-6.823884010314941,-1.2491052075347397e-05,0.3648016154766083,-0.10377596318721771,0.0,False,3
22.8,193.86135864257812,286.2955017089844,0.25871527194976807,0.005102151073515415,-86.99260711669922,0.07533737272024155,0.18464450538158417,-6.847033500671387,6.121568731032312e-06,0.39351847767829895,-0.03603772446513176,0.0,False,3
22.900000000000002,193.8953094482422,285.60845947265625,0.25871697068214417,0.004938226658850908,-87.03270721435547,-0.0213317833840847,0.3771543800830841,-6.85915994644165,4.519662979873829e-06,0.3753546476364136,0.009764686226844788,0.0,False,3
23.0,193.92857360839844,284.91943359375,0.2587192952632904,0.004671849310398102,-87.13040161132812,-0.011993408203125,0.3058549165725708,-6.8807373046875,1.7163276311293885e-07,0.36452099680900574,-0.010372437536716461,0.0,False,3
23.1,193.9513397216797,284.2286071777344,0.25872382521629333,0.004152754787355661,-87.62248229980469,0.04097988083958626,0.13737745583057404,-6.899357318878174,-5.530388875740755e-07,0.36512279510498047,-0.037986159324645996,0.0,False,3
23.200000000000003,193.9650421142578,283.5361328125,0.25872600078582764,0.003893207525834441,-88.23117065429688,0.058776721358299255,0.05228937044739723,-6.915169715881348,-2.7651944947137963e-06,0.3627954125404358,-0.038646433502435684,0.0,False,3
23.3,193.9765167236328,282.8420715332031,0.25872668623924255,0.0037975849118083715,-88.6166000366211,0.03275231271982193,0.07873591035604477,-6.9301629066467285,2.193085265389527e-06,0.3643398582935333,-0.019308140501379967,0.0,False,3
23.400000000000002,193.9879608154297,282.146484375,0.25872746109962463,0.003701962297782302,-88.81869506835938,0.010574150830507278,0.09640219807624817,-6.9442973136901855,1.3921323898102855e-06,0.35951918363571167,-0.010029973462224007,0.0,False,3
23.5,193.997314453125,281.4496154785156,0.2587287425994873,0.003551698289811611,-89.01805877685547,0.01124540250748396,0.06496573984622955,-6.957311153411865,1.9070306223056832e-07,0.35536909103393555,-0.012948883697390556,0.0,False,3
23.6,194.00306701660156,280.75152587890625,0.258730411529541,0.003353622741997242,-89.26751708984375,0.019286295399069786,0.02139463648200035,-6.968541622161865,-1.3349215350899613e-06,0.35285794734954834,-0.016309097409248352,0.0,False,3
23.700000000000003,194.00588989257812,280.05242919921875,0.2587321698665619,0.0031487171072512865,-89.512451171875,0.02043839357793331,-0.0037349218036979437,-6.978384017944336,-3.432655262258777e-07,0.35154467821121216,-0.014824863523244858,0.0,False,3
23.8,194.00685119628906,279.3523864746094,0.2587337791919708,0.0029574716463685036,-89.71074676513672,0.015748221427202225,-0.014165720902383327,-6.987289905548096,1.1251480600549257e-06,0.3506166636943817,-0.011373817920684814,0.0,False,3
23.900000000000002,194.00634765625,278.6515197753906,0.2587350904941559,0.0027935472317039967,-89.87057495117188,0.011724123731255531,-0.024415751919150352,-6.995396614074707,8.772341288931784e-07,0.349447101354599,-0.009296915493905544,0.0,False,3
24.0,194.0043487548828,277.9498596191406,0.258736252784729,0.0026569433975964785,-90.01318359375,0.010366416536271572,-0.038178570568561554,-7.002740859985352,-7.246716791087238e-07,0.3482428193092346,-0.008576378226280212,0.0,False,3
24.1,194.0009002685547,277.2475280761719,0.25873732566833496,0.0025408302899450064,-90.14522552490234,0.009926697239279747,-0.05159210041165352,-7.009389400482178,4.386170644465892e-07,0.3471236228942871,-0.007964355871081352,0.0,False,3
24.200000000000003,193.9964141845703,276.5445556640625,0.25873810052871704,0.0024315472692251205,-90.25369262695312,0.007903275080025196,-0.057840000838041306,-7.015472888946533,3.432655262258777e-07,0.34612607955932617,-0.006226840429008007,0.0,False,3
24.3,193.99087524414062,275.8410339355469,0.25873899459838867,0.002329094335436821,-90.35137939453125,0.007256063632667065,-0.06795503199100494,-7.020924091339111,8.96304470643372e-07,0.34523382782936096,-0.005895039066672325,0.0,False,3
24.400000000000002,193.984375,275.13702392578125,0.25873979926109314,0.0022334717214107513,-90.44060516357422,0.0067835524678230286,-0.07653720676898956,-7.02586030960083,9.7258566711389e-07,0.3444192111492157,-0.0053328219801187515,0.0,False,3
24.5,193.9770050048828,274.43255615234375,0.2587405741214752,0.002144679194316268,-90.51927947998047,0.006004652474075556,-0.08333764225244522,-7.0303473472595215,-5.911795142310439e-07,0.3437347412109375,-0.004648380447179079,0.0,False,3
24.6,193.96896362304688,273.7276611328125,0.258741170167923,0.0020695473067462444,-90.58734130859375,0.0051393392495810986,-0.08896425366401672,-7.034429550170898,4.1954677953981445e-07,0.3431045413017273,-0.0040055750869214535,0.0,False,3
24.700000000000003,193.96026611328125,273.0223388671875,0.2587418556213379,0.0020012452732771635,-90.64598846435547,0.004369375761598349,-0.09378474205732346,-7.03814697265625,-8.772341288931784e-07,0.34252843260765076,-0.0034495340660214424,0.0,False,3
24.8,193.95106506347656,272.3166809082031,0.25874221324920654,0.0019397735595703125,-90.69677734375,0.0037579236086457968,-0.09804806858301163,-7.041530609130859,7.05601394201949e-07,0.3420071005821228,-0.002990697044879198,0.0,False,3
